stop_id,stop_code,stop_name,stop_desc,stop_lat,stop_lon
5802,533B,Rua Bartolomeu Perestrelo,,32.65930033439218,-16.915387551935286
385,534,Monte  Tanque  D,,32.67326542862007,-16.911176884548023
5692,1348,Junto Beco Calçada  D,,32.64656970951532,-16.969703510269213
1497,168,Chão da Loba  D,,32.64993894094073,-16.888919948178604
1495,17,Rua Conselheiro,,32.64678827465142,-16.91178380162033
5688,1338,Pestana Promenade,,32.63702857477412,-16.937519980010222
5689,1340,Porto Bay,,32.63800317674449,-16.932957854837117
5763,138A,Escola Achada,,32.659072350948705,-16.921900635194437
5799,188A,CAM do Pináculo,,32.64540315935134,-16.865168127644193
5800,1077A,STA Quitéria  T-8,,32.663082892377886,-16.95501022496756
29,S281,Antes da Fajã Nogueira,,32.75383047206573,-16.877602835479102
28,S282,CAM da Fajã Cedro Gordo,,32.75413442712263,-16.876182357447888
5803,45A,Monumental Lido,,32.63826292862756,-16.931313764432495
652,C44,Lapinhas-Eira de Fora,,32.69063942287102,-16.850314600517738
896,S308,Terreiro da Luta,,32.68552056000921,-16.900947595066473
919,S315,ENT para Corujeira Cima,,32.777489260711114,-16.865387636981552
910,S343,Santo António-Fonte,,32.801680441860206,-16.87098506559853
851,S353,CAM Feiteira de Cima  3A,,32.788150448116646,-16.874282921506666
810,S355,Feiteira de Cima-Final,,32.78493885829515,-16.87700321880389
809,S357,CAM Feiteira de Cima  4A,,32.78816199387538,-16.8741193555908
808,S359,CAM Feiteira de Cima  5A,,32.790849430271585,-16.87279829432357
805,S377,CAM da Silveira  2A,,32.8021278381348,-16.8883018493652
844,S240,ESCL Primária São R Faial,,32.76751703620732,-16.85750195989351
829,S262,Lombo de Baixo  4A,,32.77710026873512,-16.85629924349007
833,S27,CZ do Cabouco,,32.7571205342309,-16.868210004053186
5690,1397,Junto Serragem  S,,32.64897839142427,-16.967083388829106
81,S279,CAM da Fajã Cedro Gordo,,32.75410576804241,-16.87628491980756
26,S284,CZ do Cabouco,,32.75712115549349,-16.86831338995508
40,S213,Arco S Jorge-ER 101  5A,,32.827618041345254,-16.94305906879941
39,S215,Arco S Jorge-ER 101  6A,,32.82491538305229,-16.947357636787007
41,S290,Depois Igreja Cedro Gordo,,32.75211672588989,-16.872330289120065
36,S292,Cedro Gordo-Ribeiro,,32.75053994944122,-16.874264227561742
25,S294,Achada do Cedro Gordo,,32.749116150032215,-16.87322023462509
5691,1346,Frente Serragem  D,,32.64896556053957,-16.96720137060433
6,C107,Antes CZ Figueirinhas,,32.64969858225632,-16.85232539353863
570,C108,Depois CZ Figueirinhas,,32.64915651456711,-16.85313869907919
165,C115,Caniço Shopping,,32.65337828095853,-16.841618562291263
166,C116,Cruz-Pedra Mole,,32.65458823983838,-16.835756746657385
574,C119,Bomba Gasolina,,32.65563957218271,-16.838148986532044
143,592,CAM São Roque  Moinho,,32.66636906173756,-16.922673187862426
155,6,Palácio S Lourenço,,32.6468200683594,-16.9101104736328
152,60,Avista Navios  D,,32.64966633243582,-16.93470935748019
150,600,CAM Terça  Antigo Término  D,,32.67660835602112,-16.920457461284606
149,601,Sanatório João Almada  S,,32.66916916794756,-16.905207169048655
139,602,CAM Terça  Poços CMF  D,,32.67541234488142,-16.9204952603492
132,604A,Entrada TV Terça  D,,32.672121752033526,-16.921056926655993
129,61,APS América  S,,32.6408157348633,-16.9447956085205
136,612,CAM Água Mel  D3A,,32.66646934908394,-16.92738471880348
133,613,CAM Lombada  Serragem  S,,32.67253772393025,-16.899181051664787
130,615,Babosas  T-22,,32.67620997882115,-16.899190733547425
397,620,Largo Álamos  Saída,,32.6650891422154,-16.93153698184691
400,624,Atrás APS Penteada  D,,32.6646881103516,-16.9292392730713
375,586,Lombo Segundo  T-17,,32.668480018165056,-16.923125112950796
380,587,Pedreira  S,,32.6676231544551,-16.91628639161601
934,617,CAM S Roque  Muro Coelha,,32.66038859932631,-16.922583876073272
1073,538,Monte  QTA Monte,,32.6756477355957,-16.9051399230957
1103,545,CZ CAM dos Saltos,,32.66377169019408,-16.916704075900704
1108,547,Monte  Pinheirinho  S,,32.66622234801916,-16.916370703397746
1107,CF50,CAM Lombo Chão  1A,,32.70649501988134,-16.975524114946342
1137,CF51,ESCL da Seara Velha,,32.7091445922852,-16.9731407165527
1138,CF52,CAM Lombo Chão  2A,,32.70762751983676,-16.97518070765266
1142,CF6,CAM Seara Velha  2A,,32.71224611537741,-16.972656538102655
1141,CF60,Pico Furão  1A,,32.73886906704874,-16.968286031345137
1117,CF66,Pico Furão  6A,,32.73929906292145,-16.968460959842695
1119,CF8,CAM Seara Velha  3A,,32.71299720335325,-16.97168550590315
1120,CF9,Entrada Eira Serrado,,32.707748681093065,-16.959659719356956
1170,S113,Caminho Chão-Santana,,32.8147430419922,-16.8870067596436
1171,S115,Pico Tanoeiro-Santana,,32.8183892265239,-16.887283491990466
1181,S118,ESTR do Jogo da Bola  5A,,32.82278172314626,-16.90479674224526
1184,S120,ESTR do Jogo da Bola  6A,,32.82423388353151,-16.904139314373975
1183,S121,Achadas da Cruz-Santana,,32.820507930672875,-16.89072276524142
1185,S122,ESTR do Jogo da Bola  7A,,32.82510440364998,-16.903784180508296
1182,S124,São Jorge-Bomba Gasolina,,32.826432801065565,-16.90358204102767
1179,S126,São Jorge-Jardins,,32.825308807211655,-16.9010746526925
1168,S128,Fajã Alta-RIB S Jorge,,32.82083875228426,-16.900504874936253
1154,S13,RIB Frio-Bar Faísca,,32.738767479292605,-16.887113174834063
1151,S133,São Jorge-Bomba Gasolina,,32.82662780709651,-16.90372438254606
1150,S135,ESTR do Jogo da Bola  1A,,32.82515518332244,-16.903853402468393
1155,S136,Achadas da Cruz-Santana,,32.82046747308001,-16.890591632882362
1015,378,Estrada Camacha  D1A,,32.66476776987267,-16.87232879011292
1017,382,CAM dos Pretos  D2A,,32.665308932549856,-16.871574378754527
301,C80,João Frino-Cabeço,,32.706499747184715,-16.830208574192646
1276,C81,João Frino-Depois Cabeço,,32.70662403315033,-16.83021984555807
1034,C82,João Frino-Estufa Flores,,32.7084996219202,-16.83192846095841
1033,C83,João Frino-Estufa Flores,,32.70868427103689,-16.83195777185226
1032,C84,Depois Quatro Estradas,,32.71105310587363,-16.831337290994206
1011,380,Saída CAM Pretos,,32.66401047455365,-16.871685359393734
1016,381,Antes Bom Sucesso  S,,32.65827774076672,-16.897766241107558
1018,383,Bom Sucesso,,32.657835139173976,-16.897052398651915
1019,384,CAM dos Pretos  D1A,,32.665906045224226,-16.87267460457701
1023,387A,Depois Cabeço de Ferro,,32.65819321205491,-16.89224618384964
411,390,CAM São João Latrão  D7A,,32.66727498680957,-16.879619107375287
953,685,Levada Cavalo  S,,32.6559544160791,-16.92549322937971
948,687,APS 4 Madalenas,,32.657016914413674,-16.927086192401873
993,684,Madalenas  Depois CTT  D,,32.65831087921427,-16.929061239876255
534,C28,CAM Ribeiro do Louro  2A,,32.68678662691018,-16.823394573322986
298,C232,ESTR Gaula-As Levadas,,32.66960275551667,-16.816743528336882
264,C133,Campo do Canicense,,32.66040245042561,-16.83603880697449
269,C134,Gaulês-Zona 35,,32.66707026068016,-16.83646147342491
271,C136,Antes do Gaulês,,32.668490493135586,-16.83867146311348
472,C148,ESCL Primária Camacha,,32.6747701652518,-16.852132313288944
462,C16,Depois Saída Carreiras,,32.67243777861049,-16.861024840807435
521,96,Depois Jamboto,,32.67079141125175,-16.94486901432663
488,969,Fundoa  T-49,,32.66373794124895,-16.919927008350726
317,C237,Igreja de Gaula,,32.67717992375605,-16.825097756204823
314,C238,Antes Fonte Tabaiba,,32.67247639599389,-16.81331020489389
312,C239,Depois da Igreja de Gaula,,32.678383348909854,-16.82571840163695
311,C24,Variante Nova-Shopping,,32.67438178672378,-16.852184774381367
1241,C209,ESTR Gaula,,32.67550187706971,-16.80739790260869
640,C36,Ponte do Rochão ,,32.68702237635864,-16.852662713902554
639,C37,Ponte do Rochão ,,32.68669567272032,-16.852579400725237
1273,C270,RIB Serrão-Fonte,,32.69247629162779,-16.84733226676563
1674,878I,CAM Três Paus  Oficina  D,,32.66923041277066,-16.950191725785544
1711,810,Rua STA Rita  D2A,,32.65381799384357,-16.95592000500845
2386,816,CAM Poço Barral  D1A,,32.6562423706055,-16.95285987854
2385,816A,CAM Poço Barral  D2A,,32.65588230884365,-16.951637624245567
2384,817,Hotel Panorâmico  S,,32.64276700672931,-16.93205114897241
2383,817A,Frente ao RG3  T-48,,32.64343866534204,-16.934159221783514
1050,819B,O Meu Apartamento  Nazaré,,32.64639506838998,-16.93454929788592
2394,819C,Rua Brasil  S2A,,32.6472854614258,-16.9359321594238
2395,819D,Travessa Venezuela,,32.6483535766602,-16.9367351531982
2391,820,Armazém Pingo Doce  D,,32.65616174738568,-16.947701388101652
2382,821,Correios da Nazaré,,32.64433161587512,-16.93372560575669
1051,822,Papagaio Verde,,32.647673399081434,-16.95267026603399
2375,823,Rua E U A  Tourigalo,,32.64898540721656,-16.9370361021933
2368,823A,Antes Estação Repsol Nazaré,,32.6474685668945,-16.9376945495605
2367,824,CAM S Martinho  PTE Cota 200,,32.64834032066856,-16.950540631214537
1052,825,Club Naval  Nazaré  S,,32.64542451747337,-16.936259079517637
2366,825B,Junto PSP  Nazaré,,32.645561430571675,-16.934298801162754
2365,826,Albatroz  D,,32.64928143351707,-16.94885815102483
2370,828,CAM São Martinho,,32.65029543721432,-16.94779917654061
2433,750B,CAM Trapiche  D2A,,32.68266958224305,-16.94707675168955
2432,750C,CAM Trapiche  D3A,,32.68141003513899,-16.946795721236743
2431,750E,CAM Trapiche  Entronca  D,,32.6857986450195,-16.9481239318848
2429,750F,CAM Trapiche  Ant Ter  D,,32.68567152180303,-16.947239159218213
436,390A,CAM São João Latrão  D6A,,32.6671333312988,-16.8806476593018
441,397,Transval  S,,32.659350099742134,-16.885986774335546
428,841A,Rua STA Rita  S2A,,32.651315783027556,-16.9566078615493
423,842,Fábrica Blocos  D,,32.64497093465401,-16.961953233538964
416,843,CZ Quebradas  S,,32.64997976774885,-16.957270790367183
413,846,Aripan  Areeiro  D,,32.6443824768066,-16.9575634002686
412,847,Depois Ponte Batista,,32.6505088806152,-16.9476509094238
417,848,Areeiro  D,,32.6440849304199,-16.9554634094238
420,850,Areeiro  Abrigo,,32.6434745788574,-16.9533195495605
426,850A,Praia Formosa  D,,32.64269773862718,-16.95046403082972
425,851,Depois Ponte Via Rapida,,32.6482391357422,-16.9509601593018
427,852,Ilma  D,,32.6411209106445,-16.9492893218994
424,853,Papagaio Verde,,32.64785415554463,-16.952962345826887
1010,857,Ilma  S,,32.6414782404886,-16.949543806844122
1009,857A,Praia Formosa  S,,32.6427097071195,-16.950348816085505
1008,857B,APS dos CTT  S,,32.643003309440374,-16.95099901620468
2428,750O,CAM Trapiche  D5A,,32.6786613464355,-16.9464149475098
2417,751,Poço Barral  QTA Esmeraldo,,32.655881658631706,-16.941304878284235
2405,760,Capela do Laranjal  D,,32.674303217702494,-16.94040543330281
2412,764,Rua DR Pita  Coohfal,,32.64725391506688,-16.930698614446307
2414,764A,Barreiros  D,,32.64714452495125,-16.929046579329153
2411,765,Estevão Neves  S,,32.661884736873226,-16.95191976624195
2409,767,Fundoa Cima  S1A,,32.670740358976566,-16.920451722849265
2364,767B,Jardins de STA Luzia,,32.65352992835172,-16.91193056363672
2363,767C,Rotunda  Fundoa Cima  S,,32.67440509321187,-16.917348058433753
2324,769,Bairro Pico Romeiras  S,,32.664358906459256,-16.948699924391367
2354,704A,CAM Azinhaga  S3A,,32.666991482115186,-16.932044145728216
2356,708,CAM Álamos  Dep LG Álamos,,32.665155403631125,-16.932456378283952
2345,709A,CAM Três Paus  Oficina  S,,32.66928674379433,-16.950306458403052
2332,709J,Três Paus  T-92,,32.67367375205113,-16.95437886073984
973,858,Curva Ribeiro  Lombada,,32.652273671138474,-16.96209229603108
960,86,Depois CZ Courelas  D,,32.665626892977336,-16.948647322712578
947,588,Caminho Igreja  S Roque,,32.66854326943448,-16.921778872439035
954,589,CZ CAM Saltos  S,,32.667071876505666,-16.917661826710795
996,740,CAM Pilar  Bar Janota  D,,32.654756157389926,-16.931840346391493
1000,918,Rampa Santana  D,,32.665469941927164,-16.90599569730191
1006,920,ESTR Laranjal  Ribeiro  S,,32.677307031542654,-16.94839628985157
1005,921,Centro C Bom Jesus,,32.65145043076828,-16.90858853158095
989,930,CAM Virtudes  APS Barreiros,,32.649846333449915,-16.927743428965186
449,838,Victória  D,,32.6448211669922,-16.9652404785156
545,840,Depois da Victória,,32.6441388737032,-16.963563670549583
540,C279,RIB Serrão-Escadas,,32.69346083728121,-16.85023852157617
2344,709C,CAM Três Paus  Ponte  S,,32.670502921087646,-16.951341596415837
2338,709D,CAM Três Paus  S1A,,32.67039891591964,-16.952774646674573
2331,709E,CAM Três Paus  S2A,,32.669322260141556,-16.954159318679483
2330,709F,CAM Três Paus  Viana  S,,32.669158034682525,-16.955449752576097
2328,709H,CAM Três Paus  S4A,,32.67136679086642,-16.954448859556738
2333,71,Vereda da Vargem  S,,32.649173321556795,-16.941502045665107
5767,1350,Rua Comboio  57,,32.658345988044935,-16.909065233753726
5768,1352,Rua Comboio  29,,32.65674598857347,-16.909465686068025
5769,1354,Rua Comboio  9,,32.65432412515254,-16.909541846034745
1274,C60,Antes das Águas Mansas,,32.695765391112765,-16.83821723798873
527,C61,Depois das Águas Mansas,,32.69579753495761,-16.83816068649195
529,C67,Descida para Curral Velho,,32.7027564157002,-16.84001900394988
538,C217,Depois Fonte Tabaiba,,32.67256187583149,-16.81331362909529
535,C218,ESTR Gaula-Escola,,32.67444082856701,-16.82398273914159
263,C222,ESTR Gaula  1A,,32.67601577323474,-16.820917024568008
293,C125,Barreiros-Pedra Mole,,32.65661338427167,-16.83699234978834
282,C126,Vista da Igreja,,32.65850248496355,-16.836455585932164
280,C128,Campo do Canicense,,32.66031151725188,-16.83606659116061
275,C129,Volta Cónego Jorge,,32.65837732521598,-16.838415548979906
454,936,CZ CAM STO Amaro  D,,32.659168020429085,-16.944554784235724
453,938,Rua DR Gastão Figueira,,32.65923555758246,-16.946196969407048
451,94,Antes Ladeira,,32.669390987223814,-16.94662499307182
456,940,Saída R Caridade Pestana,,32.654876496360814,-16.877028224599176
458,942,Rua Lazareto  Socateiro  D,,32.64745656949298,-16.89445382696671
459,943,Rua DR Gastão Figueira,,32.65932597463879,-16.94637097222184
465,948,CAM Curral Velho  D3A,,32.67918442734574,-16.943155635148063
461,949A,CAM Terra Chã  ESCL  S,,32.66612175077682,-16.940499564692416
460,95,São Martinho  S,,32.6501693725586,-16.9423408508301
483,951,CAM Terra Chã  S,,32.66711594821696,-16.94096943174436
509,953B,CAM Cemitério  QTA Leonor  S,,32.66607900980292,-16.938667074303602
2334,710,CAM Álamos  Beco Álamos,,32.66551138338915,-16.93417656482907
2341,710B,Álamos  T-14,,32.66747603907544,-16.936112449882295
495,645A,Água Mel  ESCL Galeão  S,,32.669958461120736,-16.926759024828783
186,646,Auxilio Maternal,,32.65143694006146,-16.91733704695468
300,647,CAM Água Mel  S4A,,32.6713200208683,-16.926008620499275
267,C130,Cemitério do Caniço,,32.662632540013185,-16.836811882426076
266,C131,Vista da Igreja,,32.65845469055018,-16.8363914946386
270,C135,Cemitério do Caniço,,32.662261548216605,-16.836376590763297
508,954,CAM Lombo Aguiares  S3A,,32.68084332737469,-16.938935198218086
373,885,Igreja de STA Rita,,32.650493613023315,-16.959033067256712
336,886A,Viaduto Quebradas,,32.64941897195048,-16.957637639002833
325,887,Antes Igreja STA Rita,,32.64999304311038,-16.957638561599605
321,890,CAM Areeiro  ESCL  S,,32.64767671844435,-16.954820929263807
328,896,Capela STA Rita  D,,32.64590266579144,-16.958973734485895
402,897,CAM Areeiro  Bela Vista  S,,32.64702968173398,-16.95912290715042
333,899,Capela STA Rita  S,,32.646169785052095,-16.9590848699755
335,89A,Rua DR Barreto O Ninho  S,,32.65067598307227,-16.934990586027602
332,89B,Rua DR Barreto  S1A,,32.652331028974764,-16.93467697374511
330,89C,Rua DR Barreto  S2A,,32.65419638812091,-16.93598897682448
329,9,R 31 Janeiro  S,,32.647928896839616,-16.905393564203994
319,901,CAM Areeiro  Antes Capela,,32.64546017305506,-16.95807643566071
185,648,Rua DR Caroço  BC Frias  D,,32.651392431385375,-16.918653013927376
1442,65,Capela do Amparo  S,,32.644516981162724,-16.943198959581277
563,650A,Entrada S João,,32.651103577697526,-16.9192737330167
1443,650D,Depois Tecnopolo,,32.65768227156384,-16.92479881825634
1445,651,Tecnopolo  S,,32.660268781985245,-16.925586171864197
1452,654A,Praia Formosa  T-43,,32.64280528827382,-16.951176375628282
1432,65A,CAM ENG Velho  Madibel  D,,32.64520863259273,-16.94125846512484
1425,66,São Martinho  D,,32.650015770834315,-16.941695503227262
1424,660,Antes do Boliqueime,,32.6726275340971,-16.950178944423744
1423,661,Largo Álamos  Entrada,,32.66507187300052,-16.93148173986662
1422,662,Courelas  Boliqueime,,32.671021860162504,-16.949746892903494
1426,662A,Saída CAM Três Paus,,32.669116973877,-16.9501152038574
1427,663,CAM Santana,,32.666917095173986,-16.930692560191694
306,903,Caminho do Areeiro  S,,32.645010773119694,-16.955189905558232
303,906,Cemitério STO António  D,,32.667832199043715,-16.940682176873043
307,906D,Rua Campo do Marítimo  S,,32.66648519773539,-16.93741186946985
309,908,CAM Terra Chã  D,,32.66687319640556,-16.940998393080875
310,908A,CAM Terra Chã  ESCL  D,,32.66614385311587,-16.940648367410414
1428,664,Antes CZ das Courelas,,32.6681213378906,-16.9500122070313
1429,665,Álamos  T-15,,32.66885779655441,-16.92999287553144
566,666,CZ das Courelas  D,,32.66656812858575,-16.949139082629177
1434,666A,ESTR das Courelas  D1A,,32.66582064760107,-16.94622593415074
1430,66A,Vereda da Vargem  D,,32.64953245109969,-16.941449895158595
1436,67,CAM Amparo  Vila Rosa  S,,32.645218985414104,-16.942329332652836
1453,670,Antes Posto Médico,,32.66384836584091,-16.943461981100494
1490,465,Seta  S,,32.66677756410507,-16.909128511299024
1489,466,Depois CZ CAM Monte C26  D,,32.65922626886638,-16.905116487706135
1488,417,Entrada CAM Pretos,,32.66388518386321,-16.871625885571532
1486,469,Escola Piedade  S,,32.66654600634023,-16.91261553780301
1458,375,R Pestana J Mercedes  S,,32.6578903198242,-16.9000263214111
1370,440,R Silvestre Q Freitas  D1A,,32.65684848248031,-16.902604476448523
1371,444A,Antes CZ CAM Comboio  D,,32.65863991072003,-16.90925832376165
1373,444C,Rua DR Ângelo A Silva  D,,32.65944339386368,-16.912516523503932
1502,173,Viveiros  S,,32.658121295600424,-16.91850791587113
5686,598A,CZ Rua Cónego Andrade,,32.66307797489149,-16.923488573796305
1366,271,Depois Escola Faial,,32.65417718123264,-16.89159818944702
1340,282,Cota 40  Cruz Vermelha  S,,32.65168949065428,-16.911889680385073
943,682,APS Basilios  D,,32.660542941605435,-16.931776258265746
952,682A,Madalenas  CTT  D,,32.659257669783734,-16.930271240701337
353,C242,Associação R de Gaula,,32.67307897298815,-16.810248847559787
338,C243,ENT para CAM da Faia,,32.6819343566895,-16.8273124694824
360,C244,ESTR Gaula-Furtados,,32.673990680439616,-16.80730625539564
359,C245,CAM Ribeiro do Louro  3A,,32.688768861974246,-16.82205142213617
358,C246,ESTR Gaula  3A,,32.67540506755409,-16.807281220999304
356,C248,Saída da ESTR de Gaula,,32.67593819898184,-16.804767175242816
361,C249,Antes Achada Barro,,32.72103767992728,-16.83273429898709
362,C25,ESCL SEC da Camacha,,32.678234330159306,-16.85007094537983
367,C259,Entrada para Ribeirinha,,32.66785581534307,-16.83647861236364
354,C26,Variante Nova Camacha,,32.67585081716068,-16.849313238068596
352,C272,RIB Serrão-Depois Fonte,,32.69151949993954,-16.8460613417322
348,C273,Ribeiro Serrão-Término,,32.69004454374624,-16.845510171556146
1101,C275,RIB Serrão-Antes da Fonte,,32.69171211411753,-16.84626342064536
1111,C276,Depois da Ponte Pau,,32.6945851511205,-16.857699327338953
1112,C277,RIB Serrão-Fonte,,32.6926470639716,-16.847394195244327
1376,452,Rua Comboio  Escola  D,,32.658848810359196,-16.90888321451838
1281,1277,CAM Novo do Galeão  D2A,,32.6754608154297,-16.9289226531982
2442,1192,Caminho da Quinta  D2A,,32.66219964374269,-16.926786890981912
2441,1279,CZ CAM Pilar DR Barreto,,32.65634265099896,-16.935059320931465
1417,312,Jardim Botânico  D,,32.66230088555381,-16.894092739076097
1355,273,Beco João Preto  S,,32.655031496610825,-16.892764783268987
1354,275,Saída R L Boa Vista,,32.6556168799541,-16.89407684322033
1348,279,ESTR VISC Cacongo  ESCL  S,,32.65706065306727,-16.895226313533975
1342,28,Corama  Centromar,,32.637006773758735,-16.94495728771231
1886,474,LEV STA Luzia  T-26,,32.661759353494986,-16.912235291719053
1890,476,Rua LEV STA Luzia  Lages  D,,32.66235445706025,-16.912368168841414
1951,496,Rua DR Ernesto Oliveira,,32.66151085563159,-16.90053917430235
1953,497,Rua Comboio  S3A,,32.658391978186096,-16.908929705593653
547,C49,Sítio da Eira de Fora,,32.68961044689789,-16.84343057688913
260,C54,Depois REST Katespero,,32.690982168296316,-16.83984106902693
272,C137,Moinhos-Chão Lagoa,,32.66480314741334,-16.837008750782932
1113,C278,Depois Igreja do Rochão,,32.692652140872966,-16.862358696828778
1213,C166,R Vimieiros-Bombeiros,,32.6699819943149,-16.84739888667317
1197,C189,Tribunal de Santa Cruz,,32.688979622583204,-16.789456638157976
1258,C202F,CAM do Boqueirão  6A,,32.6912460327148,-16.8233261108398
1246,C202H,Fonte Almocreves  T-110,,32.69007900248218,-16.82245867215306
1136,C103,Santo da Serra-Término,,32.724069744656354,-16.8185715901091
1134,C105,Depois do Hipermóveis ,,32.6484234555219,-16.855877016595784
1558,1198,Caminho da Quinta  D5A,,32.66080452994258,-16.92403562335834
1555,1199,Depois Capela Ajuda,,32.637484251845436,-16.940204510962143
1415,315,Rua Lazareto  S2A,,32.648130515244404,-16.88814734457241
1413,316,CAM Voltas  Escola  D,,32.66453511580829,-16.89470445171105
1412,317,Antes Pontes Lazareto  S,,32.64922931383792,-16.886815781193643
1402,318,Curva João Ladrão  D,,32.6651947778278,-16.89290942680104
1414,319,Depois Pontes Lazareto  S,,32.64918529384557,-16.8857247353967
1401,32,APS Piornais,,32.6396369934082,-16.9460067749023
1395,320,Igreja Choupana  D,,32.66643584818798,-16.892374819151883
1388,321,Lar Bela Vista  S,,32.64698121781871,-16.886270733844963
1387,322,Largo do Miranda  D,,32.6665643756977,-16.890548721255612
1385,323A,Casa Saúde C Pestana  S,,32.647789161627166,-16.885228679057004
1384,323B,Rua Nova Igreja  S,,32.64851724880403,-16.88489307312043
1482,330,CAM Curral Romeiros  D3A,,32.67258951799371,-16.8892481029742
1494,333A,Rua de Santa Isabel  S,,32.65698178075879,-16.888195683465653
1589,339,Travessa do Pomar  D1A,,32.66178321945661,-16.88606671027102
1595,34,APS América  D,,32.64119329787067,-16.944782474000483
1341,280,Bairro do Hospital,,32.64841430875148,-16.922273711012615
278,C138,Depois da ENT Serralhal,,32.6669568253057,-16.840518220492275
279,C14,ENT Aldeia da Paz,,32.671681461967594,-16.862045414219224
274,C141,Entrada para Serralhal,,32.668458233213364,-16.83875338195111
523,C143,Depois da ENT Serralhal,,32.66732871603415,-16.841415931530097
290,C144,Biofábrica,,32.6713882098375,-16.847900789452495
522,C145,Serragem Nogueira,,32.66868666389428,-16.842775889476037
1187,C100A,Santo da Serra  T-77,,32.72410314011396,-16.818159194730868
1562,1209,CAM Curral Romeiros  S4A,,32.67548633687192,-16.890717218498853
1537,1213,Rua João Paulo II  S1A,,32.641514092941115,-16.92865269941152
1536,1214,Depois das Piscinas,,32.664658697878664,-16.934679730942275
1533,1217,Rua João Paulo II  S3A,,32.64013097272492,-16.932891643780845
1538,1218,ESC Ribeiro D Dias  D,,32.667133256520344,-16.891105206625745
1539,1219,R João Paulo II  BR  S,,32.639745401183525,-16.936822404084683
1541,1220,Rua Quinta dos Cedros,,32.65869140625,-16.9307994842529
1547,1221,Rua João Paulo II  S4A,,32.638997109901204,-16.938516275086492
1548,1223,Rua João Paulo II  S5A,,32.638718149281786,-16.94000114384464
1545,1224,R Padre E Pereira  D2A,,32.657381359377894,-16.929380677700202
1542,1226,Rua 2 Quinta Josefina  D,,32.65648754129569,-16.92893709774421
2437,1227,Rua Vale Ajuda  G Brasa,,32.63938045480767,-16.94549710526617
1843,344,Clube Bom Sucesso  D,,32.65852030373926,-16.897301104126818
1840,345,Rua Azevedo Meneses  S1A,,32.65945939045781,-16.89423139225052
1838,346,ESTR B Nova  EDF B Nova  D,,32.65874593660531,-16.895746825231512
1837,347,Rua Azevedo Meneses  S2A,,32.660026309859305,-16.895320799427925
1588,347A,Jardim Botânico  T-31,,32.6619911193848,-16.8939609527588
1587,349,Jardim Botânico  S,,32.66244997364648,-16.894051712701863
1339,283,Bom Sucesso  S,,32.6581540428394,-16.89603610119488
1338,284,Rua Lazareto  D2A,,32.64735261392902,-16.88952665077866
1346,288,Depois Pontes Lazareto  D,,32.64915330086154,-16.88698192687788
2105,295,Escola Salesiana  S,,32.65596812371625,-16.896786322042786
2436,1229,Estrada Nova Poços CMF,,32.647654778149715,-16.957762363997745
2286,1235,CAM Lombo Jamboeiro  S,,32.67090103206037,-16.93335153237303
2290,1245,LMB Jamboeiro  T-93,,32.67572026991633,-16.933056118477012
2291,1247,Rua Vale Ajuda  S3A,,32.63945108790259,-16.945382608958013
1740,1275,Caminho do Galeão  S3A,,32.67482093436431,-16.929758351627708
2269,358,Transval  D,,32.659360217670105,-16.886328719835785
2270,359,Largo do Miranda  S,,32.66647548091536,-16.8903720786851
1581,35,Hotel Casino Park  S,,32.644973566031375,-16.91776256620903
1578,357,CAM Voltas  Antes Igreja,,32.66647529785347,-16.89297250577028
1584,231,ENT para CAM Neves  C38  S,,32.648299756045326,-16.869384427896936
1585,234,Urbanização do Faial  D,,32.652587464945746,-16.8906613495124
1580,177C,Caminho D João,,32.65812518831761,-16.91629523648666
1579,178,ESTR C Carvalhal  253  D,,32.65009186582061,-16.879190397154122
1871,1287,Piscinas  S,,32.665353410967384,-16.933995935210124
1867,1293,CAM Lombos  Depois Pintor,,32.68135963690734,-16.906999237609966
1874,1299,Rua 2 QTA Josefina  S2A,,32.657258997447585,-16.929331242778492
1865,133A,Jamboto  T-12,,32.67173841683855,-16.93729674204109
1850,136,Antes Muro da Coelha,,32.662188111966344,-16.92349118235271
1849,137,Golo  S,,32.67135494775213,-16.934213622724503
1847,139,Terraço  São Roque  S,,32.6705352478502,-16.933316769353947
1857,146,Rua 5 Outubro  Viveiros,,32.656856151757445,-16.91804436568885
1570,149,Depois CAM Água de Mel,,32.67220828779028,-16.92646122885546
1516,151,Depois Super S Roque,,32.672119477993284,-16.924009255806332
1514,153,João A Freitas  frente 191  S,,32.670912908048706,-16.922684962584835
1519,154,Alfândega,,32.6473993001066,-16.905641287624743
1520,155,João A Freitas  Eurocash  S,,32.66896718012852,-16.92401010321213
1984,304,Travessa do Pomar  S1A,,32.66235818739201,-16.887252936969784
1968,18,CZ Lido,,32.63810364003788,-16.93030494600673
1527,158,CZ Rua Nova Alegria  D,,32.65105445768102,-16.900135875368072
1523,160,Americana  D,,32.65106648938789,-16.897318436395608
1525,162,Miradouro Vila Guida  D,,32.65013576199009,-16.895715305163588
1506,164,Antes Rua Louros  D,,32.6494414651077,-16.893015045582366
1499,166,TV Rio Janeiro  D,,32.65089524557435,-16.890859262553278
163,C113,ESTR João G Zarco-Escola,,32.652525419834966,-16.84410599799201
471,C147,Bairro da Nogueira,,32.67022716196414,-16.844919578862932
470,C147A,R Orquídeas-PSP,,32.67062242809603,-16.846398772350703
473,C148A,Antes da Padaria,,32.67665933524968,-16.85206117278121
475,C15,Sítio do Vale Paraíso,,32.67537537275163,-16.859371522775916
480,C151,ENT TV João Cláudio,,32.67205054036228,-16.84923734397608
482,C151A,Nogueira  T-114,,32.67139201580289,-16.84888460134678
1552,120,Depois do Galeão,,32.67218107345928,-16.928087803696183
1554,1200,Caminho da Quinta  D6A,,32.65992045469791,-16.923787592006924
1561,1203,Depois Escola Salesiana,,32.65566801964458,-16.895932313851365
2435,123,Direção Guarda Florestal,,32.67047244904386,-16.944617362855826
2258,1231,Vereda Capela Santana,,32.66902298851115,-16.931055480670427
1761,55,Depois Forum Madeira,,32.637032634646864,-16.94476462869911
1727,794,RG-3,,32.642942096024754,-16.934150061475783
1521,156,Antes C C Anadia  D,,32.650032851568675,-16.903764215884394
1522,156A,Praça Autonomia  D,,32.647533416748,-16.9049205780029
1528,157,Depois da Quinta,,32.66632147277635,-16.92532306899458
1529,159,Quinta  S,,32.664657419449874,-16.926239175221735
1524,16,Centro Comercial Anadia,,32.64944986999413,-16.904229830424033
1498,167,Igreja São José  S,,32.65860618116971,-16.921451568132237
1496,169,Antes da Brisa,,32.65823292019631,-16.920176573258175
1996,203A,S Gonçalo  Depois Chão Loba ,,32.64992765176366,-16.88715325954285
2140,527,Depois Ribeira J Gomes  S,,32.660979239155694,-16.899751664890513
1245,C202I,Capela-Fonte Almocreves,,32.69055719240849,-16.822716484060763
1231,C202N,CAM do Boqueirão  4A,,32.69322119831364,-16.82769029146614
2278,360,Boa Nova  Vereda Rocha,,32.66141077783348,-16.88430045950596
2276,363A,Pneuzarco  S,,32.67003433703581,-16.890311478145925
2274,364,Boa Nova  QTA Orinoco  D,,32.66027718098754,-16.880244497667498
2273,365,Choupana Hill  S,,32.67059961303632,-16.890039264051353
2280,366,Telheiro de Zinco  D,,32.660879842399986,-16.878142153633448
2299,311,Rua dos Louros,,32.6473362605364,-16.892368391046688
1743,367,CAM C Romeiros  LEV Serra,,32.67254570624353,-16.88919247474898
1766,242,Antes R L Boa Vista,,32.65557746594751,-16.894129536890325
1765,244,Alto Bom Sucesso  D,,32.65612453423604,-16.894370100702773
2250,250,Bom Sucesso  D,,32.65815879298541,-16.895882973090213
2256,251,Rua Pedra Sina  S,,32.65163073327817,-16.888314672663814
2255,252,CAM Vale das Neves  D,,32.6475534978368,-16.868972791798544
2254,254,Rua Nova Alegria,,32.651979449905355,-16.89982019975105
2252,255,R Pedra Sina  Sociedade,,32.65427119574263,-16.888530595535833
2251,549,CZ Livramento  S,,32.66745264772509,-16.916034895871437
1748,553,Depois Pedreira  S,,32.66821657230218,-16.91313348652539
1058,556,Corujeira Fora  D,,32.67667342691249,-16.909692334951384
1745,556A,Antes Tanque  CAM Corujeira,,32.674477764949806,-16.910854744506626
1751,559,Entrada Sanatório  S,,32.669916400671916,-16.908344493700785
1757,561,Hospital Marmeleiros  S,,32.67177594689469,-16.909994752056456
1739,566,CAM Saltos  Padaria,,32.67002870996542,-16.91603198579467
1699,568A,Portada STO António  Ribeiro,,32.670869424657745,-16.90572559479485
1500,171,Modelo dos Viveiros,,32.65977397613298,-16.919797550800272
1501,172,ESTR Conde Carvalhal  D,,32.65114821899491,-16.885978330065115
1503,174,ESTR C Carvalhal  RIB  D,,32.65218824833182,-16.883781680652742
1508,1285,Ponte  Antes das Piscinas,,32.66442841705793,-16.934834917394294
1998,204,ESTR Camacha  Bica Pau  D,,32.65518429745287,-16.878881069893403
2125,417A,Estrada da Camacha  S4A,,32.66464475717009,-16.869305309945407
479,C152,Antes REST Casa da Avó,,32.67996016459978,-16.8540192383442
1230,C202O,CAM do Boqueirão  5A,,32.69307393070966,-16.82956801055476
1242,C208,Depois Achada Barro,,32.72108793580914,-16.832821331083284
1687,568B,Portada STO António  Final,,32.6707916259766,-16.907112121582
1692,873,Caminho da Lombada  S,,32.64993033351095,-16.9645723442042
1676,875,CAM da Lombada  D,,32.65178960217781,-16.96301370787679
1669,877,R C Marítimo  QTA Falcão  S,,32.6676372894247,-16.937108753438835
1668,877A,Cota 40  Cruz Vermelha  D,,32.651683807373,-16.9123210906982
1667,877B,Rua Maravilhas,,32.6483899788632,-16.921996658656134
1671,878A,CAM Três Paus  Escola  D,,32.67243875718,-16.954366760832396
1054,878C,CAM Tres Paus  D2A,,32.66963845323628,-16.954994248784665
1678,878F,CAM Três Paus  D4A,,32.67035948951007,-16.952735446997956
1736,799,Lombada  Socorridos,,32.64652215582809,-16.969724607353157
1507,176,Igreja de São Gonçalo,,32.6498950541416,-16.881875946698603
1505,177,Ponte Pau,,32.65503590372195,-16.91453331335162
1631,1049,Caminho do Galeão  S2A,,32.67395208497974,-16.92993203432801
2160,111B,Depois Capela Preces,,32.66447261618483,-16.94951096261628
2467,S134,Centro Saúde Santana,,32.80474594916388,-16.881792234162457
2468,S117,R DR Agostinho Cardoso,,32.80904826378553,-16.88417512853321
2464,1300,CAM Lombada  Depois ROT,,32.6479301452637,-16.9662971496582
2474,618A,CAM Novo Santana  D1,,32.66782585802192,-16.93033263440649
2245,1309,CAM das Lajinhas  S1A,,32.67967443107083,-16.905806807738692
2502,1310,CAM Quebradas Baixo  Lar,,32.64924790655753,-16.95878861572994
2512,1361A,AV do Amparo  S,,32.64761917252198,-16.940554988633977
2513,1363A,AV do Amparo  D,,32.647361423134846,-16.94069946042328
2045,210,Estrada Camacha  D2A,,32.65771049638053,-16.875608278290095
2044,212,Estrada Camacha  D1A,,32.65937077920774,-16.872972954565135
531,C214,Antes da Igreja de Gaula,,32.67832215398913,-16.825759141581447
533,C219,ESTR Gaula-Centro Saúde,,32.67173289757642,-16.81418350315967
532,C21A,Camacha Shopping  T-129,,32.675402992416686,-16.852699755118753
286,C226,ESTR Gaula-PT,,32.67396892719118,-16.818030442550292
284,C227,Gaula-Casas Novas,,32.67240013048894,-16.817889282891663
285,C229,ESTR Gaula-PT,,32.6741838157319,-16.81799619637575
477,C153,ESCL Primária Camacha,,32.67545078484384,-16.85204460833488
466,C156,LEV da Serra do Faial,,32.68276958998991,-16.855279662188252
478,C158,CAM Ribeirinha  3A,,32.6729202270508,-16.8392772674561
1212,C162,Capela da Ribeirinha,,32.670633518610096,-16.83974742346751
1210,C164,CAM Ribeirinha,,32.66968979999781,-16.839515220003875
1208,C165,LEV da Serra do Faial,,32.68270568585878,-16.8551905787883
1221,C173,Carreiras-LEV Serra Faial,,32.67534049006308,-16.86341655575633
1677,834,Caminho da Lombada  D,,32.64975525237921,-16.964906028984437
1675,835,CAM Poço Barral  S2A,,32.6563949584961,-16.9532012939453
1725,79,Escola Horácio Bento  S,,32.64934669607233,-16.92572800531033
1723,791,Rua DR Pita  Escola,,32.647206767101316,-16.931475659829086
1728,795,CAM C Branca  Katespero,,32.64029721723853,-16.928275091201762
1729,797,CAM C Branca  Buganvília,,32.639139719145184,-16.930232576148548
1625,1052,Largo TV do Pomar  D,,32.6637131732983,-16.889281874831656
1652,1055,Caminho Novo Galeão  D3A,,32.67442110672324,-16.92868511002103
1608,1060,Beco da Lindinha  D1A,,32.65930088459175,-16.889007828314256
1606,1061,CAM da Cova do Til  S1A,,32.65797591409851,-16.955822081253633
1295,1068,Armazém Inteligente,,32.66346209476643,-16.949280677812588
1294,1069,CAM da Cova do Til  S4A,,32.65759364014274,-16.957756726202124
1296,107,Pico dos Barcelos  S,,32.65905763528261,-16.941077817039076
2458,1290,Rua Cidade Santos  D2A,,32.66606212940022,-16.915434683946785
2043,213,ESTR C Carvalhal  196  S,,32.650094631246915,-16.87934267255407
2042,214,Rua Pedra Sina  D3A,,32.65041189525414,-16.88780794132458
2119,417B,Levada dos Tornos,,32.6645921700988,-16.86705524315517
1207,C176,Carreiras-Chão Casas,,32.68316928674846,-16.872990393457286
1206,C178,Carreiras-Sosousas,,32.68025263119006,-16.87240677283573
1200,C179,Carreiras-Bar 21,,32.6853370666504,-16.872745513916
1193,C18,Antes da ENT Carreiras,,32.6730735154095,-16.860328738937728
1192,C181,Borracheiro-Aviário,,32.687906952651794,-16.867991573563263
1733,8,Parque STA Catarina,,32.64584633082073,-16.914925782822294
1709,805C,Rua Vale Ajuda  S1A,,32.63734776402071,-16.94209433280774
1716,805E,Rua Vale Ajuda  S2A,,32.63775581903211,-16.943712212660795
2388,818,CAM Poço Barral  Levada  D,,32.65570606172887,-16.948899342823903
2371,829,Lido,,32.63679259341763,-16.934226286752644
2372,83,ENT Rua Virtudes,,32.65027426120533,-16.929106812253977
2377,830,Ponte do Baptista  D,,32.65047265071203,-16.945462930101876
1556,1,Marina,,32.64656220063713,-16.9103836065027
1622,1044,Caminho do Pasto  D3A,,32.65327189763643,-16.885574434469152
1626,1051,Final Caminho do Galeão,,32.6764793395996,-16.9297790527344
1632,1053,Caminho Novo Galeão  D1A,,32.67567918364134,-16.929781060713438
1286,106,Saída Lombo dos Aguiares,,32.671224718746245,-16.937890772266464
1290,1072,Antes Viaduto Cota 200,,32.66444859708307,-16.90153104107144
1604,1073,CAM da Cova do Til  S6A,,32.653956955480346,-16.95899220728257
1603,1074,Rua Campo do Marítimo,,32.671576788731194,-16.936402559055182
1602,1075,CAM STA Quitéria  S,,32.662268471984184,-16.952975037072473
1659,108,Jamboto  T-13,,32.67193992298106,-16.936260812870085
1599,1084,Antes da Renault  D,,32.65572413545718,-16.92238114005868
1663,1088,CAM ESCL do Galeão  D1A,,32.671114528697615,-16.92897104589105
2046,215,Antes CZ ESTR Camacha  S,,32.64885153857073,-16.87771743164993
2047,216,Rua Pedra Sina  D2A,,32.651665744896654,-16.88836962507553
550,217,Restaurante Boa Vista  S,,32.64765337519488,-16.87543644249707
2053,219,Estalagem Montanha  S,,32.646378537350884,-16.87213635318225
1255,C201,Snack Bar A Foca,,32.678453952710036,-16.799466167050557
1731,80,Romeiras  Apartamentos,,32.660393031335374,-16.9437049345404
1720,801,CAM Meio  Papagaios  S,,32.6611061108899,-16.895347006204283
1732,802,Rua E U A  Nazaré  D,,32.6474456787109,-16.937536239624
1719,802A,Antes Tourigalo  Nazaré,,32.64867868758506,-16.937004223548627
1713,802B,Rua Brasil  D1A,,32.64755749747066,-16.93707195792201
1706,802C,Rua Brasil  D2A,,32.647094631422284,-16.93581925494756
1704,802E,Rua Brasil  D4A,,32.645170095324865,-16.933525328335396
1703,803,Rua Velha Ajuda  S,,32.63889986922186,-16.931265061159404
1702,805,R Velha Ajuda Tropical  S,,32.63913574781804,-16.933015616654924
1707,805A,Depois ENT Bairro Ajuda,,32.638952454361714,-16.936192370707907
1708,805B,Capela da Ajuda  S,,32.6379530801625,-16.939132572901116
1714,808A,Rua STA Rita  D1A,,32.65132067932339,-16.95650818862062
2373,833,CAM Poço Barral  Levada  S,,32.6554145812988,-16.9500427246094
1614,108A,Frente Término-12  D,,32.67167736329449,-16.93739000723896
2186,109,Antes CZ das Romeiras,,32.660420461144966,-16.943539706406483
2174,1090,CAM ESCL do Galeão  D2A,,32.67037568460141,-16.92932261204025
2173,1091,Beco da Lindinha  S1A,,32.65851366710311,-16.88761355031468
2172,1092,Centro Saúde S Roque  S,,32.67023649902425,-16.927687642029976
2051,221,Pista Automodelismo  S,,32.64685540575507,-16.868058005184572
1907,570,Depois CZ CAM Monte C22  D,,32.66926277319193,-16.904252747465335
2213,1315,AV Santiago Menor  S1A,,32.65009566333406,-16.899289578687362
2211,1319,AV Santiago Menor  S3A,,32.64817770054224,-16.89466568963928
2209,1128,Choupana  T-94,,32.67087685876634,-16.88629175652973
2207,113,ENT CAM Velho Chamorra  S,,32.662377714794125,-16.947947147070774
2095,1148,Caminho do Terço  S2A,,32.66479365052753,-16.885899366693273
1190,C183,Rajão-Mesas,,32.690249616669924,-16.86819340791653
1189,C184,ESTR das Carreiras,,32.673195910259174,-16.861787704333864
1194,C186,Antes Caniço Shopping,,32.655690014013686,-16.841624947203524
1195,C187,Apartamentos-Pedra Mole,,32.65702009795909,-16.8368043379292
1196,C188,Caniço Shopping,,32.65325657260487,-16.841803330021882
1203,C19,Vale Paraíso-Oficina,,32.67413299238449,-16.857490108037723
1202,C190,ESTR João G Zarco,,32.6525599023439,-16.84378803666983
1204,C192,Nestlé-Caniço,,32.652865043690376,-16.845706046365887
1199,C194,Peças Auto-Caniço,,32.65095694926235,-16.848873126698344
1198,C195,ENTRONC do RIB Serrão,,32.68847764178621,-16.85239082648617
2396,743A,Rua QTA Leme  S1A,,32.657378784941656,-16.935083582217782
1440,650B,ESTR São João  D,,32.652186237747614,-16.91970204966882
1444,650E,Rotunda Tecnopolo  D,,32.65948288658764,-16.927033483144573
1451,653,Parreira  S,,32.662344422775675,-16.92821040413598
1662,1082,Boletim Metereológico,,32.64738519461132,-16.891578041663692
2171,1093,Beco da Lindinha  S2A,,32.65942314565635,-16.889133370654505
2175,1095,Caminho Casa Velha  S1A,,32.66062108264371,-16.889956256581964
2176,1096,Caminho do Pasto  D1A,,32.6547314635798,-16.88329897012055
2177,1097,Caminho Casa Velha  S2A,,32.66190313455083,-16.890042266295865
1353,277,Alto Bom Sucesso  S,,32.65641097976488,-16.894616109874708
1905,572,CZ CAM Desterro  Monte  D,,32.66963297462476,-16.90236541341755
1904,573,CAM Corujeira  PQ Estacio,,32.676579028736036,-16.907000945821597
2025,1149,R Nova Pico São João  S,,32.65480157490268,-16.922283072766025
2024,115,Antes CZ das Courelas  S,,32.665520657658185,-16.94853763499013
2023,1150,Caminho do Terço  S3A,,32.66549198948312,-16.886538252564574
2022,1151,S Gonçalo  Depois Igreja,,32.6506444945936,-16.880676371346535
2021,1152,Caminho do Terço  T-94,,32.66618218941619,-16.8863220949753
2430,750,Casa Saúde Trapiche  D,,32.676522866535905,-16.94647065265124
2415,753,CAM Poço Barral  VW  S,,32.6564857920629,-16.943061636499227
2403,755,CAM Poço Barral  Opel  S,,32.65680358677176,-16.945340320968057
2402,756,Antes CZ Laranjal,,32.67492213093454,-16.94320991135996
2401,757,Serragem STO Amaro,,32.65713126031859,-16.94649461676929
2404,76,PAV dos Trabalhadores  D,,32.658118855040705,-16.942237185334154
2406,761,Igreja STO Amaro  C8  S,,32.65933735896338,-16.947828407431953
2407,762,Azinhaga da Nazaré  D,,32.6471634433907,-16.93329189521412
2408,767A,Fundoa Cima  S2A,,32.6715762886166,-16.918879398579474
2311,771,Capela do Laranjal  S,,32.67507346827605,-16.940633581967848
2310,772,Rua Velha Ajuda,,32.63979033434145,-16.944596486372678
2309,773,CZ Laranjal  S,,32.675359542666435,-16.942071739356155
2316,777,ENT CAM Curral Velho,,32.67740559550212,-16.943996450871268
567,779,ESTR Laranjal  Oficina  S,,32.67764171415507,-16.945003524153122
2323,781,Casa Saúde Trapiche  S,,32.67665814774836,-16.94654289320421
2301,692,BC Joaquim Carlos  D,,32.650802358840544,-16.92326160151502
2300,693,CAM STO António  BC ESCL  S,,32.66151003362779,-16.9336303728252
2307,694,TV Levada São João  D,,32.64857319820728,-16.921608204004126
2180,1101,CAM do Palheiro  S1A,,32.65995594912984,-16.879503732711704
1911,573C,CAM Lombos  S,,32.67948025188941,-16.90664492937218
1916,573E,Monte  Lombos,,32.68102753343319,-16.90892479297099
1889,583,Chão Marcos  Corj Fora  S,,32.67670684367922,-16.910973156887675
1888,585,Corujeira Fora  S,,32.6766844448043,-16.909632977482126
2138,471,Correios Livramento  S,,32.66611245374546,-16.913576183971347
2135,528,Monte  Miradouro  D,,32.669293011461356,-16.90989177795139
2126,529,R Til  ENT R Carne Azeda,,32.65516964676187,-16.912396657959057
2036,1159,R Palheiro Ferreiro  S3A,,32.66383080425846,-16.861900379189784
2033,116,Antes Ponte do Galeão,,32.672213187710305,-16.93143585911096
2031,1160,CAM Curral Romeiros  D2A,,32.67596588061652,-16.889841160069178
2005,1167,CAM Voltas  Depois J Ladrão,,32.665894155087855,-16.89302124811378
2004,1168,Rua João Paulo II  D3A,,32.6399002075195,-16.9322891235352
2012,1178,CAM LMB Jamboeiro Doca  D,,32.674568549831385,-16.93329400630854
2068,1183,Caminho do Terço  D3A,,32.66323015619185,-16.88565617025384
147,597,Levada Corujeira  T-19,,32.670916953251094,-16.914384376776283
935,618,CAM Novo Santana  D2,,32.66655957441587,-16.930604305332885
936,619,CAM Lombo Aguiares  D1A,,32.672826772792206,-16.938420361084688
396,621,CAM Lombo Aguiares  D2A,,32.674648937492115,-16.938851300864144
1069,628,Parreira  D,,32.66197827507991,-16.928007141396503
2343,697,TV Igreja STO António  S,,32.66317096797679,-16.93662177536211
2326,699,Igreja STO António  S1A,,32.66383294596194,-16.938627079177778
2350,699A,Centro Cívico STO António,,32.66374442564864,-16.940490848673868
2348,700,Marina,,32.646425647934706,-16.910930675809087
2352,703,ESTR das Courelas  S1A,,32.664181661357794,-16.94356055698408
2359,705A,ESTR das Courelas  S3A,,32.6661439656593,-16.94637248487795
2357,709B,CAM Três Paus  Levada  S,,32.66984047778553,-16.950837468664805
2335,710A,CAM das Bróteas,,32.665855331890256,-16.93498452984914
2340,710C,Rua Antero Quental,,32.66560818531477,-16.935972931893584
2339,713,Depois ENT Boliqueime,,32.67283514963904,-16.95018963805329
1885,72,CAM Esmeraldo  QTA Esmeraldo,,32.6553675167478,-16.941027885886385
2181,1104,R Palheiro Ferreiro  D1A,,32.6652104880255,-16.859408613198532
2168,1105,Rua da Boa Nova  S,,32.6582412719727,-16.8810806274414
2162,1106,R Palheiro Ferreiro  D2A,,32.66386680878932,-16.861833561167735
2155,1107,Travessa do Pomar  T-7,,32.65940771544129,-16.882457360603585
2154,1108,R Palheiro Ferreiro-LG  D,,32.66498588637505,-16.862666999609413
2153,1109,Rua QTA Josefina  RTP,,32.656494140625,-16.9279479980469
2152,111,Depois CZ das Romeiras,,32.661773367471,-16.946472822261814
2151,1110,Lagoas Palheiro Ferreiro  C-37,,32.662525880102336,-16.865719729083388
2156,1111,Depois Viaduto Cota 200,,32.664363861084,-16.9013500213623
1061,585A,Depois Tanque  CAM Corujeira,,32.67470987825952,-16.910593043803892
1887,473,ESTR Livramento  Antes CZ,,32.667121747851795,-16.914784979412655
2136,472,Consolação  D,,32.66062046187304,-16.90997058845898
1110,548,CAM Corujeira  D2A,,32.6793556213379,-16.9089298248291
1026,387,Cabeço de Ferro  S,,32.65880128825351,-16.89305732086021
1021,388,Centro Hípico  D,,32.666790924632274,-16.877110055626854
444,395,ESTR Boa Nova  S1A,,32.6586140929249,-16.886794681253
281,C127,Sítio da Pedra Mole,,32.657377127039965,-16.836407909934177
1635,724,Travessa Tanque  Final,,32.65599102006315,-16.949144061054582
1642,727A,CAM Azinhaga  D1A,,32.66709023762435,-16.931993308454516
1650,731,CAM Azinhaga  D3A,,32.67006267237404,-16.9339766098774
1647,734,CAM Pilar  C STO António,,32.655864972360426,-16.938780941511684
1627,737,Rua Levada Cavalo  BP,,32.65419773478271,-16.927898448031087
1620,738,CAM Pilar  Pilar Refeições,,32.6554078774781,-16.932990781748178
1617,641A,Alegria  T-42,,32.678150177002,-16.92041015625
1616,642,Tourigalo  Achada,,32.652935861716074,-16.91807913295843
499,643,CAM Água Mel  S2A,,32.66654369429446,-16.927308490816145
501,643A,CAM Água Mel  S1A,,32.66594410959061,-16.927141920480004
498,644,Beco Amaro,,32.65230116610252,-16.916480244341546
496,645,CAM Água Mel  S3A,,32.668608758707826,-16.92722174893319
2163,1119,R DR Caroço  BC Frias  S,,32.651116174498156,-16.918261869905034
2161,111A,CAM Velho da Chamorra,,32.66314978982167,-16.948998909032735
2167,112,Terraço  São Roque  D,,32.67047605497683,-16.933305857021097
2188,1122,CAM Novo RIB Santana  D1A,,32.669878476138834,-16.930788134578545
2241,1124,CAM Novo RIB Santana  D2A,,32.66865834438314,-16.931674734944796
2470,1367,R P Sina  Depois Sociedade,,32.654373622263925,-16.887639158587863
2461,1369,CAM Lombada  Antes ROT,,32.6481704711914,-16.966287612915
2532,1211A,Curral Romeiros  S6,,32.67598717503564,-16.89111948484083
1943,491B,Rua DR Ângelo A Silva  S,,32.65963520276594,-16.912787245218542
1944,493,Rua Comboio  S1A,,32.65473423235316,-16.90945476492444
1952,495,Rua Comboio  S2A,,32.6564225788713,-16.90939410703831
1205,C196,ESTR João G Zarco,,32.64979872976284,-16.84960062082877
1225,C197,Antiga Pedreira  1A,,32.68101815512953,-16.798355082515616
1226,C198,LEV da Serra-ESTR Gaula,,32.69403883282019,-16.836033300596633
1227,C199,Antiga Pedreira  2A,,32.680281711915285,-16.79962028117248
1726,793,Azinhaga da Nazaré  S,,32.647388360290634,-16.93345759209367
1735,798,PSP  Nazaré,,32.64574022049013,-16.93425648430188
1734,798A,Rua África do Sul  D,,32.64537109945829,-16.9353802857498
1441,650,Viaduto São João  D,,32.64932097296318,-16.918463628410688
1439,650C,Renault,,32.65507250090327,-16.9214092080231
1446,652,Edifício 2000,,32.64786516763258,-16.9162155779421
1447,656,Vereda  CAM E Serrado  D,,32.6765030776846,-16.950646076160563
2157,1112,Depois Lombo Quinta  C-37,,32.65990309567261,-16.873728615152782
2158,1113,Antes Eurocash S Roque,,32.66799673476143,-16.924740115889456
2159,1114,Antes Igreja S Gonçalo  D,,32.65072557485954,-16.88071428711684
2165,1116,Depois Igreja Choupana,,32.66595063410855,-16.893163613072108
1947,4A,Teleférico-Término,,32.64732094128008,-16.902694983903064
1937,50,Escola Horácio Bento  D,,32.649239690473436,-16.92558347216411
1936,501,Depois CZ L STA Luzia S,,32.6616325378418,-16.9079475402832
558,503,Depois R J Carlos Gomes,,32.6628494262695,-16.9075794219971
1933,511,Antes CZ CAM Monte  S,,32.659029653099886,-16.905496225038842
1934,513,Beco do Pão Duro  S,,32.6609497070313,-16.9075603485107
2001,51D,Rua Vale Ajuda  D1A,,32.637592002173655,-16.94371175956377
2130,51E,Rua Vale Ajuda  D2A,,32.63723649377699,-16.94136210816759
2129,52,CAM Virtudes  L Barreiros,,32.65019008719085,-16.928569817432713
1250,C1D,Rua da Infância-PSP,,32.65068835219579,-16.902358352670493
1247,C20,Sítio do Vale Paraíso,,32.67541264311708,-16.859994850006416
1263,C202D,CAM do Boqueirão  4A,,32.692904088020526,-16.826413286217957
1260,C202E,CAM do Boqueirão  5A,,32.69177921533105,-16.824679097204424
1244,C202J,CAM do Boqueirão  1A,,32.69118740193877,-16.823317201073486
1239,C202L,CAM do Boqueirão  2A,,32.69182862986177,-16.82464745662091
1232,C202M,CAM do Boqueirão  3A,,32.69290781391303,-16.82624675997598
1229,C203,ESTR Velha de Santa Cruz,,32.67743425878165,-16.802731767656727
1454,453,Quinta do Baltasar  S1A,,32.6649932861328,-16.9010810852051
1455,454,Depois CZ LEV STA Luzia  D,,32.66050139240751,-16.908386242140036
1480,455,ESTR Livramento  Ponte  S,,32.666073384270916,-16.90168599376275
1479,456,Rua Comboio  D2A,,32.66165557570365,-16.908047056901406
1481,457,Quinta do Baltasar  S2A,,32.66526794691329,-16.9027016687067
1478,458,Rua Comboio  D1A,,32.66305708816834,-16.907616064312403
1381,44,CAM Amparo  Coohafal,,32.648496114614204,-16.94193240649319
1369,441,Colégio STA Teresinha  S,,32.655632019043,-16.904577255249
2128,520,CZ Livramento  D,,32.667335578620225,-16.916138044723684
2127,521A,Rua Cidade Santos  S1A,,32.66287998140007,-16.914953604956843
2131,521B,Rua Cidade Santos  S2A,,32.66437734544937,-16.914931067454578
2133,522,Monte  Pedreira  D,,32.66770543640129,-16.91477491121742
2134,523,Início R Sidónio Pais  S,,32.65922247248141,-16.901838054839146
2139,524,Monte  Rua 1 de Maio  D,,32.667896012624865,-16.913362084979976
561,526,Monte  Depois Miradouro  D,,32.66938713737174,-16.91128248624392
366,C256,Snack Bar A Foca,,32.680181435524844,-16.79945951410379
365,C257,Reta da Azenha-Mistubishi,,32.65352731465673,-16.84505246920632
1233,C205,São João-Santa Cruz,,32.67639764331309,-16.803601684195034
1234,C206,CAM Ribeiro do Louro  1A,,32.68878355125034,-16.822250939188063
1477,46,Rua Ilhéus,,32.64533733859904,-16.922465525330587
1460,373,BP Campo Barca  S,,32.65562440484875,-16.900086113661015
1459,374,Lombo da Quinta  D,,32.660583696568395,-16.87407146495009
1457,376,Entrada QTA Palheiro  D,,32.66214512304101,-16.87208359551007
1374,445,Rua Pedro J Ornelas  ESCL,,32.6576499938965,-16.9036407470703
2449,1191,Depois Largo Miranda,,32.66638974132114,-16.889639432236834
2440,128,João A Freitas  Eurocash  D,,32.66848947727844,-16.924512251861287
2439,1127,Depois Hotel QTA Lago,,32.65658754694349,-16.919057432965946
2453,406,Rua Pedro J Ornelas  D2A,,32.6576465477256,-16.90376204803241
2447,408,Rua Pedro J Ornelas  D1A,,32.6597137451172,-16.9027690887451
1280,409,Lombo Quinta  T-50,,32.66009533323595,-16.87480389277969
1382,41,Pestana Village,,32.639997191536075,-16.92532694585407
1408,37,Hotel Savoy  S,,32.644058504060474,-16.92080897586996
1416,313,Rua Lazareto  S1A,,32.64730947896793,-16.889370891066847
2112,417P,Palheiro Ferreiro  APS  S,,32.66398019512881,-16.870153802178248
2111,418,Quinta do Baltasar  D1A,,32.66500972112573,-16.902784723082384
2110,419,Caminho dos Pretos  S1A,,32.66528297892629,-16.87150226750735
2109,42,CAM Amparo  Conservas  D,,32.647118138572864,-16.942359627655684
2108,420,Antes CZ CAM Monte,,32.664344176974105,-16.905340113186867
2113,421,CAM dos Pretos  S2A,,32.66606731863534,-16.872564755240717
2214,429F,São João Latrão  T-47,,32.66316874967567,-16.88050247796343
2216,43,Hotel Girassol,,32.638744354248,-16.9282550811768
622,S157,Igreja de São Jorge,,32.82782276916003,-16.906577322971795
1121,S1,Pocinhos-Zona 39,,32.67980979237701,-16.90585587706771
355,C258,Santa Cruz-Pedreira  2A,,32.68111248559381,-16.799427414655508
1254,C100,Freguesia do Santo Serra,,32.72478194645896,-16.82026215423151
1493,333,Rua Murteiras  Padaria  S,,32.65646283962243,-16.888354315937143
1594,33A,R J Dias Leite  Rotunda,,32.646389002655525,-16.9128727630903
553,341,Travessa do Pomar  D2A,,32.66266593557105,-16.887435989042682
1841,343,Largo TV do Pomar  S,,32.663642219694474,-16.88911522151905
1575,350,Entrada CAM Casa Velha,,32.65843624214294,-16.890433606072264
1574,351,CAM Voltas  Antes Escola,,32.6642005358524,-16.893729213608207
1576,354,Viaduto Boa Nova  D,,32.65736151237884,-16.88726656734313
1582,235,Estrada do Aeroporto  S,,32.6536667913544,-16.877384272398867
2476,1302A,CAM Três Paus  Viana  D2A,,32.6678686171003,-16.95603923784618
2485,CF35A,Antes da Capela,,32.715067137691435,-16.968608097196462
2486,CF37A,Escola Seara Velha,,32.71448341955311,-16.969409874796302
2487,CF12A,Escola Seara Velha,,32.71447903792858,-16.969338093127295
2488,CF14A,Depois da Capela,,32.71505541237846,-16.968536154009428
2489,CF30B,R ENG Ornelas Camacho  3A,,32.721416885883826,-16.964184313009106
1307,998,ER 229  Oficina,,32.65282848314894,-16.959757705101158
2514,1320,Vereda Poço Morgado  D1A,,32.679156896724365,-16.943882931750597
1942,489,CZ Rua STA Luzia,,32.65711075385267,-16.907190614768645
2202,1130,Caminho do Meio  187,,32.66994185127606,-16.886657353805553
2195,1131,Infantário D Olga Brito,,32.652837701227085,-16.917881164777366
2194,1132,Caminho do Meio  177,,32.66929246466033,-16.88752600713855
2145,1133,ESTR São João  Igreja,,32.65208832625305,-16.919548877284715
2200,1144,Rua Clube Choupana  D4A,,32.66355121667272,-16.889848806639638
2107,1145,Rua 4 Pico Romeiras  S,,32.663291916393725,-16.947585103009626
2217,1146,Caminho do Terço  S1A,,32.66328261915782,-16.885595827325904
2106,1147,Courelas  T-9,,32.66429181054555,-16.947728393170483
822,S232,Antes Igreja São R Faial ,,32.77235891357655,-16.855302101302637
990,73,Centro  Freitas e Neto,,32.64495842486188,-16.922210439487007
1007,921A,Artistas,,32.65270582514083,-16.910325853621902
347,C27,Depois ESCL SEC Camacha,,32.67925458436905,-16.848217808317273
1188,C10,Sítio da Madre Água,,32.67089007928976,-16.867771350953635
2419,747,ESTR Aeroporto  Gaspar e Filhos,,32.647756934984876,-16.8661454211389
2347,701,Romeiras  Posto Médico,,32.66367808875557,-16.941854448428433
2358,707,CZ das Courelas  S,,32.66664585000666,-16.94911472519205
2342,711,Entrada Boliqueime,,32.671003546867105,-16.949636004258647
1645,735,Rua Nova Lev Cavalo,,32.652812801145025,-16.92603008040667
1397,327,Rua Cidade Santos  S4A,,32.66639473760348,-16.916121500401005
1399,328,Choupana Hill  D,,32.670613890724894,-16.89012377086374
1396,328A,Pneuzarco  D,,32.670028718858724,-16.890363561006428
1845,239,ESTR Camacha  viaduto  S,,32.653852525173214,-16.878567119312102
1879,131,ESTR CMDT C Freitas  Rampa,,32.67168585715151,-16.93934472320287
1877,132,Quinta  D,,32.66467116818762,-16.926331541320405
1876,133,Lombo dos Aguiares,,32.67123832389818,-16.93820924278694
1856,146A,Rua 5 Outubro  Ponte Pau,,32.65538189403628,-16.91555359634562
1571,147,Saída CAM Novo Galeão,,32.6724511360804,-16.928027626940832
2531,1211B,Curral Romeiros  T-29,,32.67653800264019,-16.89106231952185
1357,260,Depois Salesianos,,32.65478789156962,-16.897067804610085
1771,270,Forca  D,,32.64754010985995,-16.896523866581045
363,C250,São João-Santa Cruz,,32.67633371111818,-16.80345270501195
364,C251,Sítio do Boqueirão,,32.6906739335218,-16.833183594977033
370,C252,ESTR Velha de Santa Cruz,,32.677511839631066,-16.8015161061512
371,C254,Snack Bar A Foca,,32.67827713521337,-16.799458995243736
368,C255,LEV da Serra-ESTR Gaula,,32.69407496375617,-16.8357468486853
1393,33,R J Dias Leite,,32.64612516628012,-16.912711627087937
1852,13A,AV Mar  Alfândega,,32.6471405000887,-16.905922645210747
1853,14,Hotel Cliff Bay  Bes,,32.63944998671458,-16.92626108195864
2212,1323,AV Santiago Menor  S5A,,32.64817169598874,-16.890466918191127
2218,1325,AV Santiago Menor  S6A,,32.6491513038623,-16.889010422980483
2222,1234,AV Santiago Menor  D1A,,32.64910945251256,-16.889169925234416
2219,1236,AV Santiago Menor  D2A,,32.648395682883205,-16.890705377216666
2146,1238,AV Santiago Menor  D3A,,32.64831534249395,-16.89294844619664
2224,1240,AV Santiago Menor  D4A,,32.64831160484464,-16.894728938841453
2147,1242,AV Santiago Menor  D5A,,32.64913319834404,-16.896102647373997
2223,1244,AV Santiago Menor  D6A,,32.65016751450333,-16.899641658155236
2221,809,CAM Cova do Til  Final,,32.65330056791401,-16.959345121556222
2220,332,Rua da Boa Nova  Saída,,32.6604042053223,-16.8823699951172
2208,1129,Hotel São João,,32.64857116561643,-16.91904219047984
2026,1153,Lagoas Palheiro Ferreiro,,32.66245336239776,-16.86553509651796
5764,1115A,Azinhaga dos Ausentes,,32.655535773832185,-16.924540265258027
5765,9B,Casa STO António,,32.64837484569557,-16.905836361103564
5766,183B,Rua do Oudinot,,32.64987179512003,-16.903574633015047
2027,1154,Ilma  C-35  D,,32.64205478599855,-16.949672457742217
2028,1155,R Palheiro Ferreiro  S1A,,32.66256433221327,-16.86449107520336
2029,1156,Rua Basto Machado,,32.6421890258789,-16.9484252929688
2035,1157,R Palheiro Ferreiro  S2A,,32.66493591544044,-16.862996828202927
2034,1158,CAM Curral Romeiros  D1A,,32.6754665311488,-16.890583501247804
2039,195,Americana  S,,32.65112191560157,-16.897660902670392
119,CF5,Ribeira da Lapa-Zona 13,,32.70343544591284,-16.953586336580813
1139,CF53,Depois ESCL Seara Velha,,32.70827813908484,-16.974098492250178
1220,CF55,CAM Lombo Chão  1A,,32.70762104641879,-16.97526858164983
1145,CF56,ESCL da Seara Velha,,32.70913044695715,-16.973077917167586
1156,C70,Sítio de João Frino,,32.70554763610215,-16.838628417154318
1157,C71,Sítio de João Frino,,32.705554541108846,-16.838782914784833
1158,C72,Antes de João Frino,,32.704855307443864,-16.83706568367243
1164,C73,Depois de João Frino,,32.70447945744163,-16.83662638738325
1163,C74,Depois RIB João Frino,,32.70563604166123,-16.835989691038595
1165,C75,Antes RIB João Frino,,32.70572495029336,-16.835875437323477
1275,C79,Antes Cabeço João Frino,,32.706202505419945,-16.83129378458319
1030,C86,Sítio das Quatro Estradas,,32.71244021986519,-16.830404141960358
1035,C87,Sítio das Quatro Estradas,,32.711969446286766,-16.830282357627443
1036,C88,Inatel-Quatro Estradas,,32.71501409427219,-16.830691471954726
544,C46,Antes Estação de Serviço,,32.689606430745265,-16.845258826499084
542,C48,Sítio da Eira de Fora,,32.68966182243882,-16.843373971374564
548,C5,Sítio da Madre Água,,32.670920484998156,-16.867670538688742
252,C50,RIB Serrão-Eira de Fora,,32.69133607114376,-16.842818594965298
253,C51,RIB Serrão-Eira de Fora,,32.69134184179963,-16.84263313821312
1607,1063,CAM da Cova do Til  S2A,,32.659571273661186,-16.956234336106295
1292,1066,Caminho das Preces,,32.663209810039355,-16.950671764325037
1289,1067,Escadas Cova do Til,,32.65860509283989,-16.957042445106385
2059,2,PC Povo,,32.64696683246135,-16.906249298116784
2030,1161,R Palheiro Ferreiro  S4A,,32.66493466972083,-16.859436407087188
2002,117,Depois CZ das Courelas  S,,32.66699552561012,-16.948683759363213
2007,1170,Rua João Paulo II  D4A,,32.64050384602874,-16.931047485895128
1511,177B,Apel  T-82,,32.657525903867345,-16.915521313691496
1605,1062,Beco da Lindinha  D2A,,32.658375824765876,-16.887494138992256
1288,1065,CAM da Cova do Til  S3A,,32.660303595964685,-16.95704987250711
1291,1071,CAM da Cova do Til  S5A,,32.655521724488906,-16.959245420441672
1597,1076,TV Campo do Marítimo  D,,32.669727571620676,-16.936825792275098
1657,1078,R C Marítimo  QTA Falcão  D,,32.667487690575854,-16.937285297883825
1655,107A,Estação Rádio Madeira  S,,32.65979224313654,-16.94172908499703
1660,1080,CAM Cemitério  QTA Leonor  D,,32.66630726363706,-16.938750196578294
2178,1098,Pico das Romeiras  D1A,,32.66511688160608,-16.947668435544486
2184,1099,Caminho Casa Velha  S3A,,32.66289325745441,-16.889809576627222
2183,11,AV Mar  E E M,,32.64711340631631,-16.90428407902795
2185,110,Golo  D,,32.67121732464228,-16.93419808640768
2182,1100,Pico das Romeiras  D2A,,32.665166018112124,-16.948542615960804
2179,1102,R Nova Pico São João  D,,32.6546255168309,-16.9221855170123
2020,1162,Rua João Paulo II  D1A,,32.63862058929739,-16.940090794030635
2032,1163,Pinheirinho  T-37,,32.66639300739481,-16.85885652646941
2019,1164,Rua João Paulo II  D2A,,32.63895077815735,-16.938363654579906
2013,1165,Antes Lombo Quinta  C-37,,32.659970232821685,-16.873733811442932
2006,1166,R João Paulo II  BR  D,,32.63987413684512,-16.935933288934237
1293,1070,Escola Madalena  RTP,,32.65717187922579,-16.92818235685899
2008,1171,CAM Novo RIB Santana  S1A,,32.668643103089856,-16.931621460932504
2009,1172,Rua João Paulo II  D5A,,32.641429901123,-16.928731918335
2010,1173,CAM Novo RIB Santana  S2A,,32.66995540167048,-16.930733159792073
2015,1175,Antes Escola do Galeão,,32.67046456476161,-16.929936204207603
2017,1176,Escola do Galeão  D,,32.66978957550529,-16.92891801540542
2014,1177,Galeão-ESCL  T-15B,,32.67022599106405,-16.926913231473947
1830,1029,R Edmund Betencourt  S2A,,32.66695055398707,-16.94568530721513
1214,C167,Achadinha  T-111,,32.68255345013118,-16.853861793795016
1216,C170,R Orquídeas-Abrigo,,32.67024096705948,-16.845306287134434
1223,C170A,R Orquídeas-PSP,,32.67069450379338,-16.846368272389842
1222,C171,ESTR das Carreiras,,32.673935036379014,-16.862104357352035
1224,C172,Borracheiro-Aviário,,32.68795909875862,-16.86805259629773
1218,C174,Carreiras-Bar 21,,32.68537754762024,-16.872833496633504
1176,C101,Freguesia do Santo Serra,,32.72475757829532,-16.820385201537395
1135,C104,Cancela-Zona 23,,32.64831490007074,-16.859953393325878
1133,C106,Antes Hipermóveis,,32.6481437683105,-16.8565483093262
564,654,Bairro Pico Romeiras  D,,32.66454226733801,-16.94878414488187
1450,655,APS Penteada  S,,32.664098859320944,-16.928382576701846
1449,658,Depois Vereda  D,,32.67427759231678,-16.95088284367441
1437,659,Casa Saúde Penteada  S,,32.66425347516614,-16.930546699453405
2234,895,Teleférico Jardim Botânico,,32.66367792369152,-16.89561475014515
179,1341,CAM dos Marcos  T-19,,32.679508915258204,-16.91431068874116
181,1343,Rua Ponta da Cruz  S1A,,32.63476587903307,-16.943424221885387
1978,297,Rochinha  T-32,,32.65478987836797,-16.894602757443707
2049,223,Mobil  Cancela  S,,32.64696418533575,-16.86394540205523
1954,227A,CAM ZN Industrial  S1A,,32.64999302937637,-16.857975340119143
1918,227B,CAM ZN Industrial  S2A,,32.65212113747645,-16.860673101527826
1903,58,APS Virtudes  D,,32.65050031406483,-16.932798795867374
2003,1169,Ladeira Santana  S,,32.667520824827854,-16.930946230210004
2011,1179,Caminho do Terço  D1A,,32.66551589598935,-16.886602121157132
2018,118,Galeão  São Roque  D,,32.67144929610049,-16.929599467774196
2037,1180,LMB Jamboeiro  CAM Corgo  D,,32.673667188415436,-16.932884118650982
2038,1182,CAM Lombo Jamboeiro  41,,32.672840531334096,-16.932643789820453
1828,103,Antes PAV Trabalhadores,,32.65716970286388,-16.941602024776458
351,C271,Bar Borracheiro,,32.69207637215911,-16.865855421278738
350,C212,Serragem de Gaula,,32.68006296010867,-16.826605981535465
1259,C202,Sítio do Boqueirão,,32.69064533235546,-16.833250565457433
1261,C202C,CAM do Boqueirão  3A,,32.69317381677752,-16.827658174089628
1243,C21,Vale Paraíso-Cemitério,,32.67451675069527,-16.854309134692997
1240,C210,Saída do CAM da Faia,,32.68185052062389,-16.82738128373276
1473,370,Estrada da Boa Nova  D,,32.66127107859444,-16.87516193422447
1472,371,Campo da Barca,,32.65232651672956,-16.90162592389607
1467,371A,ESCL Francisco Franco  S,,32.652724207904676,-16.904545089132952
1872,129,Antes da Rampa  S,,32.672858630535245,-16.940870458276983
1866,1295,ESC Ribeiro D Dias  S,,32.66721545306616,-16.8911470450649
1868,1297,Rua 2 QTA Josefina  S1A,,32.656341800536474,-16.928740516302128
1878,13,AV Mar  Alfândega,,32.64712544032021,-16.906243786891437
1875,130,Antes da Quinta,,32.66632571027368,-16.925417751616333
1881,1301,R Padre E Pereira  BC  S,,32.65779010094649,-16.929829606458135
1880,1303,R Padre E Pereira  S,,32.65847690414287,-16.93065816113279
1621,10,Hotel Savoy  D,,32.6439781188965,-16.9204597473145
1795,190,Rua da Bolívia,,32.648976793323264,-16.93776761855899
168,1266,Caminho dos Tornos  D3A,,32.6749496459961,-16.9116191864014
167,1268,Caminho dos Tornos  D4A,,32.67402486265396,-16.91359561220408
175,1272,Largo Levada Corujeira,,32.670947866007076,-16.914352592248825
2498,1381,TRAV Quebradas Baixo  T-16,,32.646561896086716,-16.96365452553458
2500,1306,CAM Quebradas Baixo  D1A,,32.64603219887866,-16.96247586198541
2501,1308,CAM Quebradas Baixo  D2A,,32.6484978797985,-16.961247359363913
2093,1184,CAM Lombo Jamboeiro  D,,32.672034755577585,-16.932591995334175
2092,1185,Rua Clube Choupana  S1A,,32.663716202729155,-16.889839589244474
2094,1186,CAM LMB Jamboeiro  Saída,,32.67093891390185,-16.933396402380367
733,S453,CAM da Ilha  16A,,32.81075473541802,-16.903964053845968
781,C69,Antes de João Frino,,32.70524549072853,-16.840314988931837
70,S397,CAM da Silveira  3A,,32.803796131072716,-16.895703949618763
67,S398,Jogo Bola-Lombo Cunha,,32.82548929906389,-16.90913593669103
65,S399,CAM da Silveira  4A,,32.8037434162096,-16.892850501181048
573,C117,Depois Caniço Shopping,,32.65566694848088,-16.841276154366867
99,CF45,CAM Seara Velha  3A,,32.712276039830016,-16.97271186374958
1140,CF54,Antes ESCL Seara Velha,,32.70829476125195,-16.973988311970555
1144,CF59,Lombo Chão  T-81,,32.70598708481227,-16.97427999959645
259,C52,Casa do Requeijão,,32.69186299516008,-16.841568048586407
258,C53,Casa do Requeijão,,32.69181789537123,-16.84161112366015
1624,1046,Caminho do Pasto  D4A,,32.65238257560685,-16.887181101902687
1630,1047,Caminho do Galeão  S1A,,32.672764443067294,-16.929749513360985
2516,1324,Cota 500  D,,32.67878052839216,-16.943253117890144
2517,1391,Rua dos Louros  ESCL,,32.64813946794831,-16.892561820501353
2520,1292,CAM Areeiro  atrás Aripan,,32.64533661403129,-16.957934037703552
2538,1334,Mercado Abastecedor  D,,32.65277646115885,-16.944571807295524
1356,261,Canto do Muro  S,,32.6552977454054,-16.883442587531263
1773,269,Escola Faial  S,,32.65371247758822,-16.890620736617524
2091,1188,Caminho do Olival  D,,32.66510147812552,-16.926954648526465
2089,1189,Rua Clube Choupana  S3A,,32.664227691294684,-16.89203325407405
2088,119,Antes CZ da Ladeira,,32.66886192638967,-16.94825441862669
2096,1190,Caminho da Quinta  D1A,,32.66240595749412,-16.926210394484094
2104,1001,Ponte Ribeira Grande  S,,32.66473858335324,-16.9361164759207
824,S234,Igreja de São Roque Faial,,32.77062977687747,-16.8568606900863
849,S235,Largo do Massapez,,32.7716217041016,-16.8409938812256
848,S236,Água de Alto-São R Faial,,32.769588470459,-16.8565273284912
627,S17,Achada do Cedro Gordo,,32.74936711766977,-16.872828524815326
599,S177,Reta da Achada Grande,,32.82662438685953,-16.912744390544116
605,S183,Chão da Felpa,,32.82616291244961,-16.9223376018852
606,S189,Reta da Felpa-RIB Funda,,32.819548051418,-16.93351569458423
157,S190,Ponte do Faial,,32.788219575166,-16.85255684186972
156,S191,Antes Capela-RIB Funda,,32.820983258884745,-16.934855081212387
118,S192,Moinhos-Degolada,,32.78547667030038,-16.851411994696427
107,S193,Capela-Ribeira Funda,,32.82180824009452,-16.936317379299794
1123,S104,ESTR Jogo Bola-Escola,,32.825987568946864,-16.908259307805217
1122,S105,Santana  T-56,,32.8056802892878,-16.880742540563844
1148,S108,ESTR do Jogo da Bola  2A,,32.822820415087016,-16.91041097166481
169,1270,Caminho dos Tornos  D5A,,32.67258492657325,-16.913726250068922
1835,1276,Rua Cabrestante  D2A,,32.63638567386292,-16.946364943115757
1834,1278,Rua Ponta da Cruz  D1A,,32.634389632188494,-16.946936136998332
1829,1280,Rua Ponta da Cruz  D2A,,32.63465179765372,-16.943618713354443
1332,1282,Rua Piornais,,32.64038656907078,-16.946510583023233
1351,289,Rua COR Cunha  COR Afonso  S,,32.652418155680806,-16.898425171933628
1350,29,Palácio S Lourenço,,32.6467742919922,-16.9103507995605
1352,290,Antes Pontes Lazareto  D,,32.64917214620609,-16.885617071730692
1349,291,Rua Mãe dos Homens,,32.654128894867924,-16.897679749404304
1347,292,Lar Bela Vista  D,,32.64712554828186,-16.886414922625576
552,292A,Casa Saúde C Pestana  D,,32.647667102833445,-16.88533261471583
2150,292B,Rua Nova Igreja  D,,32.64878296685398,-16.884787829944564
1777,292C,Junta Freguesia S Gonçalo  D,,32.64945813305645,-16.883150580790392
2100,1125,CAM Achada  Antes QTA Lago,,32.65527304778088,-16.919651537744212
2097,1126,Ladeira Santana  D,,32.667747903009094,-16.931114993479518
2103,100,ESTR CMDT C Freitas  D,,32.67116616707501,-16.941929446329627
37,S139,ESTR do Jogo da Bola  3A,,32.822788603663014,-16.904843039107952
8,S146,Faias-Santana,,32.81167516138352,-16.885133227797574
7,S147,ESTR do Jogo da Bola  5A,,32.82175250477818,-16.90988391687825
2062,199,Saída Rua Louros  S,,32.649448292793736,-16.89286965799109
12,S148,R DR Agostinho Cardoso,,32.809016918919546,-16.8842463719048
1997,203,Chão da Loba  S,,32.649874150960855,-16.888994763218488
13,S149,ESTR do Jogo da Bola  6A,,32.82289184118422,-16.910386420967253
15,S150,PSP-Santana,,32.80742068899475,-16.881154271100907
621,S155,Freguesia de São Jorge,,32.82647982545751,-16.906455601714885
1836,1274,Rua Cabrestante  D1A,,32.63779107171273,-16.946403449987795
1317,1246,Caminho Pico Funcho  1A,,32.655124875876496,-16.949315922877535
1311,1248,Caminho Pico Funcho  2A,,32.65385045211578,-16.95012703108102
1304,1250,Centro Cívico-Pico Funcho,,32.65293810444981,-16.95001552918892
1303,1252,Caminho Pico Funcho  3A,,32.65171393693898,-16.950166875248332
1301,1256,Caminho Pico Funcho  5A,,32.64971553074288,-16.950613727641354
1305,1260,Caminho Pico Funcho  7A,,32.64828475062145,-16.951861245501345
2494,1373,CAM Quebradas Baixo  Lar,,32.649402017163936,-16.959113790235342
2519,1322,Vereda Poço Morgado  D2A,,32.6784739671301,-16.9446525853713
1991,309,Rua Lazareto  Socateiro  S,,32.64739142081759,-16.894291654394987
1960,181,Rua Elias Garcia  CRSS,,32.652276769366644,-16.907323497766946
1959,182,Restaurante Boa Vista  D,,32.64779270368767,-16.875618978441597
1958,183,Rua dos Profetas  EEM,,32.64748691814569,-16.90463746185052
1962,184,Estalagem Montanha  D,,32.64645755010741,-16.87213186800067
1963,186,Pista Automodelismo  D,,32.64654707471025,-16.867985829994087
1970,19,Pinga,,32.647607043542095,-16.903686688966516
1972,191,Neves  T-38,,32.64804874713971,-16.87085765691087
2067,202A,ESTR Camacha  viaduto  D,,32.653714833217606,-16.878603187520014
2102,1000,Ponte Ribeira Grande  D,,32.66491619363814,-16.936484043283013
811,S363,Entrada para a Silveira,,32.80950529106894,-16.884749529785154
798,S23,Igreja do Cedro Gordo,,32.75347825979901,-16.872258895580153
797,S230,Depois MIRDR Palheiros,,32.77320973759744,-16.85403963438335
64,S4,Achada Marques-Cemitério,,32.80710129808406,-16.908763802703177
617,S159,ESTR do Farrobo  2A,,32.82950362041882,-16.90607339323373
616,S160,Lombo do Curral-Santana,,32.79763673919734,-16.87720520913912
624,S162,Feiteira do Nuno,,32.79489750636291,-16.875937796563125
628,S163,CZ ESTR do Farrobo,,32.83195586714723,-16.908379212231303
625,S164,CZ para Feiteira Cima,,32.794783413898635,-16.871744346423206
631,S165,ESTR do Farrobo-Bar,,32.83126429651886,-16.909777564175624
601,S175,Achada Grande-Bar Matos,,32.82709766877638,-16.911853332843908
603,S181,Felpa-Tanque de Rega,,32.8259052195743,-16.917997985311224
1628,105,PAV dos Trabalhadores  S,,32.65815888428181,-16.942096275792153
2169,1103,CAM do Palheiro  S2A,,32.65938290969225,-16.880088517421413
2237,S16,Caminho Chão-Fonte,,32.81619169740277,-16.888952174882114
1316,1361,Rotunda do Amparo,,32.64697138613278,-16.94199721624578
2455,1359,CAM Ponte  Centro Saúde,,32.66395244924844,-16.936250472879923
2466,1298,Final Rua DR Barreto,,32.65017833524938,-16.935327530411598
1995,205,ESTR Conde Carvalhal  S1A,,32.65114729711446,-16.887163482201235
1992,206A,Centro Inspeções-Zona 23,,32.65701925559995,-16.88340976342595
2057,207,ESTR Conde Carvalhal  S2A,,32.6511728738971,-16.886218443504198
2056,208,Saída R Caridade Pestana,,32.65520367011101,-16.877018741737054
2050,209A,Antes Igreja S Gonçalo  S,,32.65114274558407,-16.88334965767271
2069,1012,CZ Pico São João  D,,32.653901812782806,-16.923250047112674
1827,1030,Caminho da Ladeira  D1A,,32.66573397542572,-16.942137636119664
646,S533,Cemítério-Zona 14,,32.691735657650845,-16.774632367851112
653,S535,Estalagem DR-Zona 26,,32.73042133059068,-16.887949735108734
72,S400,Farmácia de São Jorge,,32.8263601217007,-16.90755182072783
76,S401,CAM da Silveira  5A,,32.801748396484314,-16.892344539758493
79,S403,CAM da Silveira  6A,,32.80255810042353,-16.889958009261754
77,S406,Fajã da Murta  1A,,32.76514692119976,-16.876041790054984
610,S185,Reta da Felpa,,32.823542305546276,-16.926390205102404
112,S205,Arco S Jorge-ER 101  3A,,32.823872510081515,-16.943984854637808
1057,S207,Vereda Beira-Arco S Jorge,,32.82481041752692,-16.94322729406198
113,S209,Depois da Vereda Beira,,32.826423834219455,-16.94203477367595
88,S211,Arco S Jorge-ER 101  4A,,32.82780099592669,-16.942033331674914
1543,1225,Travessa do Valente,,32.63951307094418,-16.927276795062753
2249,S18,Caminho Chão-Garagem,,32.81903335100613,-16.889748417880817
2193,S515,Caminho Chão-Escola,,32.81414711228624,-16.887775402754176
2192,S517,CAM Chão-Largo Pinheiro,,32.812326751623836,-16.886437361162436
1813,S362,Pinheiro  3A,,32.81216947997116,-16.88715592896915
2499,1304,TRAV Quebradas Baixo  D,,32.64543294224188,-16.963526581072873
2101,1002,Jardins do Leme  D,,32.662942280851624,-16.934806096883563
2099,1003,Jardins do Leme  S,,32.66321019746089,-16.934860148275366
2098,1004,CZ Beco da Escola  D,,32.66115725833855,-16.931819685482882
2087,1005,CZ Beco da Escola  S,,32.66139027456981,-16.932088970975077
2086,1006,CZ Cine Teatro  D,,32.65980077300702,-16.92943813401099
2085,1007,CZ Cine Teatro  S,,32.65970115111607,-16.929118625668647
2080,1008,CZ Beco da Madalena  D,,32.657451564717,-16.926305707772045
2074,1013,CZ Pico São João  S,,32.65397979437315,-16.923211111435112
2082,1018,Capela Santo Amaro,,32.65780146874011,-16.944136026717672
1833,1028,Beco da Pinheira  D,,32.66646196657017,-16.943188731340157
1062,S439,Igreja da Ilha,,32.81122493434032,-16.91151491523124
209,S445,Saída para Achada Marques,,32.808080469904496,-16.909113232279662
208,S447,CAM da Ilha  13A,,32.8096501347293,-16.907297274231126
243,111C,CAM Velho Chamorra  Lotinha,,32.665662529071184,-16.949373095090255
226,S285,Cruzinhas-Zona 27,,32.75946755034913,-16.87788932689238
859,S246,Achada do Folhadal,,32.76303925483856,-16.86192712478918
860,S25,Depois Igreja Cedro Gordo,,32.75519455549174,-16.870637608061486
855,S252,Levada das Furnas,,32.757464914976104,-16.86781390736521
843,S256,Lombo de Baixo  1A,,32.7837791442871,-16.851448059082
831,S268,Lombo de Cima  2A,,32.77202687532211,-16.862656447958095
30,S280,Depois da Fajã Nogueira,,32.75372205705378,-16.877522436014395
27,S283,Sítio da Fajã Grande,,32.75586582576079,-16.87915092930024
32,S287,Lombo de Cima  1A,,32.76816152549697,-16.868766432133334
34,S289,Lombo de Cima  2A,,32.77011991656519,-16.865227297323123
35,S293,Lombo de Cima  4A,,32.77214703276222,-16.862684360642497
2492,S276A,CAM Fajã Grande Cima,,32.757696510276126,-16.87886160263927
1892,478,Final CAM D João,,32.65990062252243,-16.916845798320818
1893,479,Rua da Pena,,32.655893083691836,-16.90284468010539
1899,48,Hospital DR Nélio M  D,,32.64831179458439,-16.92355518918765
1898,480,Depois CAM D João,,32.66083765463188,-16.917356232659074
1919,486,Rua Arc D Aires  D2A,,32.65880101185813,-16.918251793712315
1935,487,R Nova Pedro J Ornelas  S,,32.65778104761475,-16.904488955044325
1920,488,Rua Arc D Aires  D3A,,32.657828801817864,-16.917723521665426
1941,49,STO Hellier,,32.637008886228905,-16.937954200607685
2073,1009,CZ Beco da Madalena  S,,32.65807820395488,-16.926949292970647
2072,101,Quinta do Esmeraldo,,32.656142170590485,-16.941101381876763
2071,1010,CZ Azinhaga Ausentes  D,,32.65647896873573,-16.924978134201705
2070,1011,CZ Azinhaga Ausentes  S,,32.6565452983628,-16.92489043513691
1779,1031,R Edmund Betencourt  S3A,,32.666010295172526,-16.945200516908173
174,1032,Caminho da Ladeira  D2A,,32.66473097869257,-16.940609113266486
207,S449,CAM da Ilha  14A,,32.810519589373754,-16.90648137654333
737,S369,Pinheiro  2A,,32.81242789088159,-16.89072638052777
674,S54,Arco S Jorge-ER 101  8A,,32.82281043158704,-16.946480706337454
697,S541,Felpa-Vacaria,,32.8259217020241,-16.923801406753608
696,S543,Estação de Machico,,32.721023816975844,-16.768498358035455
694,S547,Lombo Galego-Candelária,,32.773884580639645,-16.872635115930215
693,S549,ESTR Jogo Bola-Escola,,32.82540496290403,-16.90911322074705
698,S55,CAM do Serradinho,,32.773324627919976,-16.852392262571303
903,S334,Centro de Machico,,32.717472076416,-16.7672157287598
905,S336,Aeroporto-Zona 35,,32.689502919691044,-16.78203468715089
912,S339,Antes Capela STO António,,32.8067092895508,-16.8720207214355
911,S34,Arco São Jorge-Miradouro,,32.82671053998677,-16.954029816150314
913,S341,Santo António-Capela,,32.80464423169281,-16.87142732246885
907,S347,CZ Saída Santo António,,32.79563123549823,-16.87122596029004
863,S349,CAM Feiteira de Cima  1A,,32.7921257019043,-16.873025894165
924,S35,Achada do Folhadal,,32.76306678720021,-16.861857478920182
812,S365,Caminho Chão-Largo,,32.81206060061501,-16.886315052624663
813,S367,Pinheiro  1A,,32.81230948562324,-16.887728614864564
820,S370,ESTR do Farrobo  5A,,32.828836541281625,-16.905636495306393
47,S417,CAM da Ilha  1A,,32.81377928281437,-16.902888746244628
46,S419,CAM da Ilha  2A,,32.811357742271106,-16.902248841689527
45,S42,Arco S Jorge-ER 101  2A,,32.82487549021091,-16.947428654270787
50,S421,CAM da Ilha  3A,,32.81101934015876,-16.903251691019907
1923,505,Caminho Ferro  T-27,,32.6645317077637,-16.9070796966553
1922,506,ESCL B Perestrelo  D,,32.65980205358278,-16.91393732046472
1925,508,Depois CZ LEV STA Luzia  D,,32.66143172681637,-16.914446989345425
1926,509,Saída R ENG Amaro Costa,,32.659715481250934,-16.903954822052064
1927,51,Hotel Baia Azul  S,,32.6363372802734,-16.9405555725098
559,510,Igreja I C M  D,,32.661910934030516,-16.915057549459952
1778,1033,CAM Igreja Velha  S1A,,32.673016979885645,-16.921818442184033
4,1050,Rua da Boa Nova  D,,32.65990215575371,-16.881932626947613
700,S553,ESTR Farrobo-Fontenário,,32.83120252147969,-16.911262938460283
692,S58,Cabanas-Restaurante,,32.826008439949916,-16.938443741628873
704,S59,Terreiros-Zona 27,,32.77637472071045,-16.848076571260382
677,S63,Depois dos Moinhos,,32.78111758420557,-16.846776762965554
676,S64,Capela-Ribeira Funda,,32.82176577187434,-16.936409141618785
816,S373,Silveira-STOP,,32.808423272001164,-16.887567764525038
31,S286,Antes Igreja Cedro Gordo,,32.75512758626044,-16.870854665079754
52,S425,CAM da Ilha  5A,,32.80721248443749,-16.906206284867853
2187,1120,Depois Escola do Galeão,,32.67047381862648,-16.929875788768886
2235,1121,Rua Alto Pico  Achada,,32.65175966301464,-16.917729215521383
2459,1288,CAM Ponte  Centro Saúde,,32.663901035806795,-16.936349110462064
2462,1296,Cemitério STO António,,32.66780729533299,-16.940286894474564
2239,1307,R DR Pita-Clube Ténis,,32.645780612728004,-16.92713772743041
2246,1311,CAM das Lajinhas  S2A,,32.678885202384,-16.904598533159525
1611,1313,CAM das Lajinhas  S3A,,32.679802776760326,-16.902238682001006
1612,1228,CAM das Lajinhas  D1A,,32.67983913153798,-16.902327294603737
1609,1230,CAM das Lajinhas  D2A,,32.678917767100124,-16.90464749582683
2248,1232,CAM das Lajinhas  D3A,,32.679718587952976,-16.905782020716895
2247,S14,Escola do Caminho Chão,,32.813827576774166,-16.887323314810445
2191,891,CAM das Voltas  Escola,,32.66439857325925,-16.894342580539984
2190,C21B,Camacha Shopping  T-129,,32.67544054351769,-16.852670538483277
2228,919,Cemitério São Gonçalo  S,,32.65040274793613,-16.882142945541567
1287,925,CAM Bica Pau  Fonte  S,,32.651981706083326,-16.8813740434335
1297,937,CAM Bica Pau  Curva  S,,32.65347383503462,-16.880461221627588
1298,947,CAM Bica Pau  Final,,32.65420393329638,-16.879047006599546
1800,C319,Caminho da Portela  2A,,32.686598729935945,-16.85830983145918
1363,1034,Rua das Virtudes  D2A,,32.64976364921703,-16.929685807787994
675,S65,Antes da Degolada,,32.785445376198055,-16.851322487549947
680,S66,Depois Capela-RIB Funda,,32.821035148125745,-16.935013140667706
681,S67,Ponte do Faial,,32.788399235013664,-16.852319665069157
682,S68,Reta-Ribeira Funda,,32.819534114782904,-16.933582579073608
683,S69,Centro de Saúde Faial,,32.79105025676946,-16.853332314673864
1063,S7,Montado Pereiro-Poiso,,32.70797108739937,-16.892112637348614
688,S70,RIB Funda-ER 101,,32.82094263499905,-16.931474548493078
689,S71,Depois Centro Saúde Faial,,32.79173806806767,-16.853653186151316
687,S72,Reta da Felpa-RIB Funda,,32.823529330301966,-16.926323039067004
775,S75,Covas-Faial,,32.7896308898926,-16.8548736572266
918,S313,Lombo Galego-Escola,,32.77711622680682,-16.863641166685557
932,S319,CAM do Lombo Galego  1A,,32.77586442412287,-16.870345082208882
931,S32,Igreja do Arco São Jorge,,32.82658520031378,-16.95611684947071
930,S321,Lombo Galego-Ribeiro,,32.77518976012994,-16.872757188504103
928,S322,Lombo Galego-Escola,,32.7770697521794,-16.863600586318103
916,S324,Fazenda-Lombo Galego,,32.783077189217416,-16.86028219609068
914,S326,Saída do Lombo Galego,,32.78446558477985,-16.857021592132465
909,S327,CZ para Santo António,,32.795579963621215,-16.871194985441917
1271,C159,REST Casa da Avó,,32.678170247886165,-16.852294837461532
1804,C321,Caminho da Portela  3A,,32.68692392938469,-16.86071875274827
1805,S368,CAM da Silveira-STOP,,32.8084887712927,-16.887608175954952
1806,S366,Pinheiro  1A,,32.810243869063484,-16.8896179115733
1807,S364,Pinheiro  2A,,32.81238631999013,-16.89068065264424
1788,492,Rua Arcebispo D Aires,,32.655783127776964,-16.914986082403562
1794,804,Rua Nova Alegria,,32.651324230818496,-16.90037688319193
1322,1036,Caminho STA Quitéria  D,,32.66211627626952,-16.95280380873928
1321,1037,CAM Igreja Velha  S3A,,32.67494708448092,-16.922896052378896
217,S48,Arco S Jorge-ER 101  5A,,32.826461355285254,-16.94209080005002
190,S519,Depois da Achada Marques,,32.799387499839796,-16.9089574629029
875,S386,Estalagem DR-Zona 22,,32.730396776818004,-16.888015903268826
873,S387,CAM da Silveira  7A,,32.80587027887747,-16.896597224469396
872,S388,Antes do Bar Faísca,,32.74027565701603,-16.885421534022637
792,S379,CAM da Silveira  3A,,32.802491361244584,-16.89006512139176
17,S39,Antes da Antiga Escola,,32.76623686334217,-16.85819850334114
16,S390,Arco S Jorge-ER 101  9A,,32.82202345231328,-16.94796270662305
23,S391,Silveira-Final,,32.805013838452965,-16.900608900884336
42,S392,Felpa-Vacaria,,32.8259175441008,-16.923693421700623
44,S394,Depois ENT Penha Águia,,32.782700267812615,-16.847465101451622
69,S395,CAM da Silveira  2A,,32.805796259154675,-16.89661043541529
68,S396,Lombo Galego-Candelária,,32.77394366604413,-16.872670839872512
1789,1329,CAM Tornos  LG LEV Corujeira,,32.6709522346379,-16.914308941068516
1816,1335,Caminho dos Tornos  S3A,,32.674943915765226,-16.911551310839236
180,1347,Rua Cabrestante  S1A,,32.6365289114181,-16.946376736326044
178,1349,Rua Cabrestante  S2A,,32.637741485409,-16.946312499889526
1822,1286,Descida Para ROT Max,,32.66162720747431,-16.928094620495873
1819,1357,Igreja Santo Amaro  S1A,,32.65957517695478,-16.948094054153717
1329,228,Socipamo  D,,32.6709899902344,-16.9164390563965
1318,994,Beco Cascalho,,32.661003333919865,-16.944888782801723
1999,518,Monte  Pinheirinho  D,,32.666157070991126,-16.91644406827517
1327,1042,Caminho do Pasto  D2A,,32.65300726683557,-16.883699083112145
673,S537,Depois do Bar Faísca,,32.74025784501788,-16.885363654302147
695,S545,Entrada para Penha Águia,,32.78273038488643,-16.847388001161818
868,S53,Miradouro dos Palheiros,,32.77470052213709,-16.852476450674718
51,S423,CAM da Ilha  4A,,32.81085501761416,-16.904029146771364
2236,S511,Caminho Chão,,32.81898420158664,-16.889792736565813
2230,S513,Caminho Chão-Fonte,,32.816089630127,-16.8889675140381
1302,1254,Caminho Pico Funcho  4A,,32.650692972161856,-16.950068061941714
1300,1258,Caminho Pico Funcho  6A,,32.648970982028686,-16.950978437664038
1306,990,Cemitério São Martinho,,32.65002352793887,-16.943335906890066
1314,S167,Entrada para Vigia,,32.83080171681952,-16.91309766195608
1309,185,Graça  T-11,,32.67486529586344,-16.949430150176788
2465,945,ER 103  Depois Lombos,,32.678997993154525,-16.906855387970644
2472,675,ESCL São Martinho  T-04 e 83,,32.65053069604312,-16.94434397591607
2491,C192A,Centro Saúde do Caniço,,32.6521541742785,-16.847774833469078
2132,521C,Rua Cidade Santos  S3A,,32.66567670664422,-16.915482161523133
5687,407B,Antes Miradouro,,32.66068809306327,-16.874647254326582
5762,617A,Beco do Cano,,32.66155350325842,-16.922392226798436
53,S427,CAM da Ilha  6A,,32.81052409744572,-16.906560565186002
59,S429,CAM da Ilha  7A,,32.8096472900586,-16.90736442767667
58,S43,Centro Saúde São R Faial,,32.76832056101631,-16.857264735655
60,S431,Escola da Ilha,,32.808609753080404,-16.909140941832494
57,S433,CAM da Ilha  8A,,32.80867808962939,-16.90958626008853
54,S437,CAM da Ilha  10A,,32.81034726937934,-16.91155759918874
1623,1045,Caminho Novo Cova,,32.673494506616535,-16.926813259225735
1651,1054,Caminho Casa Velha  D1A,,32.66296127279641,-16.889808258100445
1653,1056,Caminho Casa Velha  D2A,,32.6618472228259,-16.89011167125292
1285,1058,Caminho Casa Velha  D3A,,32.66046905143144,-16.889983242260392
1284,1059,Rua das Virtudes  S,,32.6480407714844,-16.9302597045898
2471,1294,Rua da Pedra Sina,,32.65246684137783,-16.888557415819847
2475,1302,CAM Três Paus  Viana  D1A,,32.66897455385778,-16.95559591113039
2495,1375,CAM Quebradas Baixo  Frut,,32.64858981187888,-16.961244955481504
2496,1377,CAM Quebradas Baixo  S3A,,32.64609347050497,-16.9625258221487
2497,1379,TRAV Quebradas Baixo  S,,32.645455516968504,-16.96343606211228
1343,285,Rua da Rochinha,,32.65194839297887,-16.90098291967412
1344,286,Rua Lazareto  D1A,,32.648080430677055,-16.88828725308088
1345,287,Rua COR Cunha  Entrada,,32.65264808030046,-16.89987660715015
1966,193,CZ R Nova Alegria  S,,32.65100544742266,-16.90003372688747
2066,201,Antes Chão Loba  S,,32.65074474549747,-16.89105034675481
884,S79,Antes da Diferença,,32.78617615516006,-16.857587504460422
881,S81,ENT para Lombo Galego,,32.78446968005536,-16.857365623193864
880,S82,Achada Grande-Bar Matos,,32.82728488124136,-16.91130628780017
885,S83,Depois da Diferença,,32.783699319400625,-16.8582573668845
893,S87,LEV Serra Faial-Zona 28,,32.789094013408054,-16.860936697994912
1990,307,Forca  S,,32.64760370210634,-16.896703540527337
1989,308,Rua Azevedo Meneses  D2A,,32.659162154766385,-16.894115032468907
1964,187,Rua da Infância,,32.64956392566513,-16.903514959398215
1965,188,Mobil  Cancela  D,,32.6470349997539,-16.86396949271933
1973,194,Antes CAM das Neves  D,,32.64870330207149,-16.867664222371967
2040,196,Antes Miradouro Neves  D,,32.64960828141996,-16.87198404463858
2063,198,Depois Miradouro Neves,,32.651244464025396,-16.875328448719326
2061,1A,Cais,,32.64662493840344,-16.909998516256287
2060,200,Antes CZ Bica Pau,,32.65471441065391,-16.8780024630158
1994,202,Estrada Camacha  17  D,,32.65093059119126,-16.87790003331846
925,S316,CAM do Lombo Galego  1A,,32.77585210393031,-16.870279316895534
915,S325,Lombo Galego-Término,,32.77220434593002,-16.87670932204782
401,625,CAM Lombo Aguiares  D3A,,32.67772586118732,-16.938084828189293
1159,C78,Depois Cabeço João Frino,,32.7062530517578,-16.8315525054932
1012,38,Capela do Amparo  D,,32.6445846557617,-16.9432144165039
1027,38A,CAM E Velho  Madibel  S,,32.6453056335449,-16.9412326812744
265,C132,Moinhos-Chão Lagoa,,32.66488439448784,-16.83708772930154
517,956A,Beco Corgo  S,,32.67953808691049,-16.939058994599304
520,958,CAM Lombo Aguiares  S4A,,32.67773255115023,-16.938167501347355
519,959,CAM Velho Quinta  S1A,,32.66336705532684,-16.926086369803194
516,960A,Escola LMB Aguiares,,32.67570222596389,-16.938545923103526
345,C267,CAM Ribeirinha  2A,,32.67298252577864,-16.83922957961464
346,C268,RIB Serrão-Escadas,,32.69380693793399,-16.85015760810724
1256,C202A,CAM do Boqueirão  1A,,32.691239172021,-16.831731540985096
1235,C207,ENT para ESTR de Gaula,,32.675946110958094,-16.80466320514359
1238,C211,ESTR Gaula-Furtados,,32.673975368069165,-16.80776385989
1553,12,Hotel Reid's,,32.64172025105334,-16.92406340873699
2294,1261,Caminho do Olival  S,,32.6652153058898,-16.926913058279617
2281,1263,Igreja Choupana  S,,32.666348004911086,-16.892180185883927
2275,1265,Rua Clube Choupana  S4A,,32.665192150755374,-16.89377781318598
2268,1267,CAM Igreja S Gonçalo  S,,32.648989260863736,-16.88187507120337
1684,866,R Caridade Pestana  D1A,,32.656606232771374,-16.874468269192324
1053,876,Depois das Casas,,32.68450237654185,-16.954008608145674
1673,878D,CAM Três Paus  Viana  D1,,32.66878226868782,-16.955430162714585
1680,878G,CAM Três Paus  Ponte  D,,32.670464257809705,-16.951391028753715
636,S276,Cruzinhas-Zona 26,,32.759454868205815,-16.87799182350441
635,S277,Depois da Longueira,,32.77854647190253,-16.846415669030186
633,S278,Sítio da Fajã Grande,,32.755803895014054,-16.879375162723623
575,C122,Sítio da Pedra Mole,,32.65747422409792,-16.8369149961337
594,C123,Tecnorocha-Pedra Mole,,32.65512466414103,-16.835643282050547
629,S169,ESTR do Farrobo  4A,,32.8291244506836,-16.9133396148682
614,S172,Levada de Alto,,32.78665713299768,-16.860003630013786
600,S176,ENT para Lombo Galego,,32.78440921121626,-16.857303234561854
597,S179,Felpa-ER 101  1A,,32.825708055862194,-16.916022485497024
108,S199,Cabanas-Restaurante,,32.825832167838314,-16.938170959971966
109,S2,ENT para Achada Marques,,32.80798211835867,-16.909246728073764
93,CF48,Estrela-Zona 40,,32.6892700195313,-16.9539909362793
120,590,CAM São Roque  Escola,,32.66764827048649,-16.921566206291484
142,593,CAM Saltos  Oficina,,32.66916053069982,-16.916823711179518
141,593A,Rua Cesar Rosa,,32.66997885179448,-16.91600841116575
148,598,Rua Cónego Andrade,,32.662514058093954,-16.922570188376298
154,599,Portada STO António  S1A,,32.67075769965291,-16.907024111311337
944,640,Rua Paiol  D,,32.65410275634896,-16.91901805187816
1515,152,Esfera,,32.64866291637354,-16.906560592643842
890,S90,Entrada para Vigia,,32.83075673524524,-16.913006004163552
879,S92,ESTR do Farrobo-Bar,,32.831258723460934,-16.909683851357613
878,S94,CZ Estrada do Farrobo,,32.8319320678711,-16.9084510803223
874,S95,Feiteira do Nuno,,32.79494661487669,-16.87599786723508
867,S97,Lombo do Curral-Santana,,32.797829148265514,-16.877119070020317
865,S99,Antes ENT ESCL Santana,,32.7994232177734,-16.8774032592773
634,C110,Reta da Azenha,,32.65372411840279,-16.844729667020715
1173,S110,ESTR do Jogo da Bola  3A,,32.821979476828396,-16.910032863364663
530,C68,Depois de João Frino,,32.70526122621038,-16.840626212560828
474,C149,Biofábrica,,32.671426643019586,-16.847772125056835
1883,717,Vereda  CAM E Serrado  S,,32.67634981717443,-16.95054174158645
1639,720,Travessa Tanque  Maxmat,,32.65819635178103,-16.95037516861308
1638,721A,Álamos  Saída CAM Bróteas,,32.66541494986793,-16.934700368769064
1641,727,Igreja dos Álamos  D,,32.66526868357323,-16.931899347362677
1643,728,CAM Poço Barral  VW  D,,32.65642465838157,-16.943142301548228
1648,730,CAM Pilar  QTA Esmeraldo,,32.65559422872655,-16.940438330943458
2477,1302B,Viana  T-50,,32.66684413776053,-16.956129595776343
2478,1302C,Rua Nova Três Paus  D1A,,32.665894622963066,-16.95464286756978
2479,1302D,Rua Nova Três Paus  D2A,,32.663782398630055,-16.955025503240865
2480,1371,Rua Nova Três Paus  S1A,,32.66382921271567,-16.95494386076744
2490,C266A,Vereda Tia-RIB Serrão,,32.69454597886238,-16.853066242261637
2493,S283A,CAM da Fajã Grande Cima,,32.757755392220766,-16.878750792653065
2503,1389,Cota 500  S,,32.67869877190667,-16.943435453446895
2504,1385,Vereda Poço Morgado  S1A,,32.678225523720805,-16.944484885352583
2505,1387,Vereda Poço Morgado  S2A,,32.67877370782005,-16.943972231684707
432,390E,CAM São João Latrão  D2A,,32.66493362263403,-16.88152271451757
431,390F,CAM São João Latrão  D1A,,32.66438586171765,-16.881440078838754
442,396,ESCL Palheiro Ferreiro  D,,32.6639556884766,-16.8654079437256
961,859,Areeiro  S,,32.64368423661035,-16.954813401652242
959,860,Escola de STA Rita,,32.6503295039699,-16.958989598916144
974,589A,Rotunda  Fundoa Cima  D,,32.674532477673914,-16.917340953893792
261,C220,ESTR Gaula-Miradouro,,32.674914010922585,-16.821197339466995
512,C146,ENT TV João Cláudio,,32.67196402826448,-16.849225834499478
469,C147B,R Orquídeas-Abrigo,,32.670186922779756,-16.845344353078282
455,935,Balancal  T-33,,32.65613404626095,-16.873728946290043
1219,C177,Carreiras-Chão Casas,,32.68326183499734,-16.872914797201442
1191,C182,Carreiras-LEV Serra Faial,,32.675297628719036,-16.86347163122291
1262,C202B,CAM do Boqueirão  2A,,32.69301128580802,-16.82955849583206
1257,C202G,Capela-Fonte Almocreves,,32.69049142597192,-16.822761445696347
1563,1208,ESCL Ângelo A Silva  D,,32.659976440592104,-16.908601450426797
1738,567,Antes Largo da Fonte,,32.67566249147474,-16.904977850880112
1769,812,Largo Alecrins  D,,32.65568262028908,-16.956531910178406
2425,813,Central Barreiros  S,,32.64544538676703,-16.929585983886348
2260,814,Alecrins  D,,32.657147383675195,-16.95512808205992
1049,815,Redondo Barreiros  S,,32.64368655216061,-16.929090093888245
2378,78A,Estação Rádio Madeira  D,,32.65970239200916,-16.941707907928325
2534,1158B,Curral Romeiros  D1,,32.67598946041858,-16.891248533942512
5661,1075A,CAM STA Quitéria  90  S,,32.66299352604437,-16.95427948643157
3,1181,Caminho do Terço  D2A,,32.664728482797145,-16.88590318617153
2,1187,Rua Clube Choupana  S2A,,32.66379791437979,-16.89137172197996
937,679,TV Levada São João  S,,32.64841953317588,-16.92135130600195
942,681,Beco Joaquim Carlos  S,,32.650890322500636,-16.923227334265682
945,641,CAM Terça  Antigo Término  S,,32.6766709988036,-16.920403452137986
977,923,ZN Industrial  T-38 e 39,,32.65145718756846,-16.86319429493604
297,C233,ESTR Gaula-Miradouro,,32.67488475692913,-16.821459788529804
299,C234,Antes Centro Saúde Gaula,,32.67136706171591,-16.815357226013766
296,C235,ESTR Gaula-Escola,,32.674522406568435,-16.823951563343403
513,956,LMB Aguiares  Convento  S,,32.67872645952727,-16.93859754455426
1090,991,CAM Curral Velho  S3A,,32.679269051303805,-16.943118984455207
1717,808,CZ Quebradas  D,,32.65008162719786,-16.957176722334456
2390,819A,Rua do Brasil  S1A,,32.64519688234411,-16.933448373774365
2189,C111A,ESTR João G Zarco-Nestlé,,32.6527976989746,-16.8463535308838
1270,992,Bombeiros Voluntários,,32.654012584570324,-16.901130682161188
2226,C315,Caminho da Portela  1A,,32.68252489231341,-16.84702172558667
2233,C317,Achada Urzes-CAM Portela,,32.68569028951039,-16.852809365978256
2077,1016,Sul Bairro STO Amaro  S,,32.659129969446795,-16.948337590505425
739,C93A,Achada do Barro-Escola,,32.7254333496094,-16.8313312530518
712,CF11,Saída do Túnel-C Freiras,,32.72185010617729,-16.962847151327313
395,621A,CAM Lombo Aguiares  ESCL,,32.6756691982716,-16.938515437503014
394,622,Casa Saúde Penteada  D,,32.66422164192155,-16.93063644285521
378,635,CAM Igreja Velha  S,,32.67117322381655,-16.92137055235604
1072,537,Antes CZ LEV STA Luzia  S,,32.66149356739852,-16.91431033779363
978,922H,Escola Boliqueime  D,,32.67457426015121,-16.94922430486431
985,836,Ponta da Laranjeira  D,,32.64685654469333,-16.965953811498373
539,C22,Vale Paraíso-Oficina,,32.674199506063836,-16.857494486968424
262,C221,Depois Centro Saúde Gaula,,32.671429764501696,-16.81603177472376
2298,1251,Caminho da Quinta  S2A,,32.66078374153697,-16.923855364839792
2295,1253,Caminho da Quinta  S3A,,32.6611517342732,-16.924682480528922
2293,1255,Caminho da Quinta  S4A,,32.66154467580871,-16.925833390853448
1811,811,Escola da Lombada,,32.6523343217724,-16.962063491504473
1797,893,Rua Brito Câmara  La Vie,,32.64733910734171,-16.91443906167762
89,CF4,CAM Seara Velha  1A,,32.71158560308219,-16.973278089577658
135,610,CAM Água Mel  D2A,,32.66851326167358,-16.927218683772416
134,611,Antes Serragem  Babosas,,32.67096813967297,-16.89903995235596
1037,C89,Inatel-Quatro Estradas,,32.71495910892898,-16.830571000275842
1045,911,ENT Três Paus Viana  S,,32.680143493000536,-16.953103160879827
1028,917,Chamorra Casas,,32.6883277893066,-16.951717376709
986,922F,CAM Barreira  D5A,,32.676663277134814,-16.94998277658879
988,929,R Caridade Pestana  S2A,,32.656398622013064,-16.875632808890757
438,836B,Ponte da Ribeira  Pizo,,32.6527709960938,-16.9645900726318
448,837,Alecrins  S,,32.65719809255031,-16.955074519698055
546,84,Depois CAM Velho Chamorra,,32.662270398807856,-16.947914866454788
526,C63,Sítio da Levada do Pico,,32.69798171706038,-16.838123960248602
525,C64,Curral Velho-LEV do Pico,,32.701042619414785,-16.839435395352858
288,C223,ESTR Gaula-As Levadas,,32.6696241184006,-16.816832908936316
289,C225,ESTR Gaula-Mini Mercado,,32.670813329302504,-16.817981959110085
295,C230,ESTR Gaula-Bar Santos,,32.67040645147288,-16.81774304539298
292,C231,ESTR Gaula-Escadas,,32.67614832653999,-16.82108308641503
463,949,CAM Terra Chã  Beco  S,,32.665107105895444,-16.940112203933914
1079,981G,Chamorra Barreira,,32.6836937254057,-16.94917061546853
1077,981I,Escola Boliqueime  S,,32.67469894414143,-16.949193377407017
1076,981J,Barreira  91,,32.68450554341135,-16.94900873836965
1756,563,Monte  Tanque  S,,32.67333855969555,-16.91106022018774
1693,872,R Caridade Pestana  D4A,,32.656083245877156,-16.876492105925905
87,CF36,Bar Serafim-C Freiras,,32.72182830269176,-16.964028140741082
85,CF38,Entrada Túnel C Freiras,,32.72160866228851,-16.96283088962183
84,CF39,Terra Chã-Ponte,,32.713861955346864,-16.970834449149706
121,608,CAM Água Mel  D1A,,32.67099070632659,-16.926307120508834
440,393A,Centro de Inspeções  S,,32.6578140258789,-16.8836250305176
446,394,Campo Futebol 1-Maio  D,,32.66579566035874,-16.865845587622474
966,673E,Rotunda Tecnopolo  S,,32.65996269768053,-16.927686197537547
975,736B,Rua DR Barreto  D2A,,32.65259736238951,-16.93493928571942
528,C66,Subida para Curral Velho,,32.7027212971336,-16.8401458402353
283,C228,Gaula-Casas Novas,,32.672511296292875,-16.817929065477053
291,C23,CZ da Padaria,,32.67649125356873,-16.851789998403536
507,955,Atrás Cemitério STO António,,32.66945362783806,-16.93954791194299
503,963,CAM Velho da Quinta  S3A,,32.66575242863484,-16.924676224836134
492,977,Casa Velosa  Boliqueime  S,,32.67104279639882,-16.948858228574178
493,979,Bar Angola  S,,32.67169558166983,-16.947913949199545
1092,981D,CAM Barreira  S3A,,32.680332804529044,-16.949325406672862
1086,981F,CAM Barreira  S4A,,32.68263567400343,-16.949467411632536
1272,C260,Apartamentos-Pedra Mole,,32.657076091677396,-16.83694692534092
343,C261,CAM Ribeirinha  1A,,32.66979306465709,-16.839442867699862
342,C262,Igreja STA Cruz  T-113,,32.6884994506836,-16.792989730835
341,C263,Capela-Ribeirinha,,32.67065701208077,-16.839648162270414
340,C264,Rajão-Mesas,,32.69017477401785,-16.868340115401665
339,C265,Ribeirinha-Muralha,,32.671406271922926,-16.840825897145116
2460,978,Quinta do Leme 978,,32.66192852756029,-16.935346788783086
1610,971,Monte-Lajinhas,,32.67908604299954,-16.90058205899507
1796,1331,Caminho dos Tornos  S1A,,32.6725524752346,-16.91368158817613
1815,1333,Caminho dos Tornos  S2A,,32.67387680778489,-16.9137113119536
10,S144,Caminho Chão-Santana,,32.81466916862006,-16.887143635885487
160,C111,Antes Centro Saúde Caniço,,32.651266115909316,-16.84813118804784
571,C12,Antes da Madre Água,,32.670866462726586,-16.86522313844123
568,C121,Cruz-Pedra Mole,,32.654688924564724,-16.835978423647994
138,604,CAM da Terça  D,,32.67347406889602,-16.920910054545704
128,609A,R Portada STO António  S,,32.670691363339266,-16.899596771290568
1071,629,Beco Corgo,,32.67960607538414,-16.9390019941792
1068,63,CAM Amparo  LEV Piornais  S,,32.64339251179884,-16.94425551681849
1265,922C,CAM Barreira  D2A,,32.68088751581809,-16.949454883946004
1267,931,R Caridade Pestana  S3A,,32.656878139742425,-16.874303194661636
257,C55,Antes REST Katespero,,32.69091143143652,-16.839780632030248
255,C56,REST Katespero,,32.691397673228046,-16.839141616216537
254,C57,REST Katespero,,32.69146864029628,-16.839073592313493
541,C58,Águas Mansas-Zona 24,,32.693703685248124,-16.837239560688904
256,C6,Antes da Cornélia,,32.666983097773084,-16.866972801507043
1083,99,CAM Esmeraldo  Dep Moinho,,32.65427683581216,-16.941406871396573
1085,995,Curral Velho  T-90,,32.682193882729614,-16.94201010551517
1084,997,CAM da Igreja  D,,32.66482343240929,-16.93728402655236
1299,982,CAM Bica Pau  Inicio,,32.65429620840974,-16.879117894563315
1803,984,CAM Bica Pau  Curva  D,,32.65353337297128,-16.880466657940435
1802,986,CAM Bica Pau  Fonte  D,,32.65196514495801,-16.881452606972076
1801,988,Cemitério São Gonçalo  D,,32.65048906256887,-16.88218315787859
1817,1337,Caminho dos Tornos  S4A,,32.67645909743314,-16.9131978530685
172,1339,Caminho dos Tornos  S5A,,32.678079319093435,-16.914485701537675
171,1262,Caminho dos Tornos  D1A,,32.6780700683594,-16.9145412445068
173,1264,Caminho dos Tornos  D2A,,32.67656790680699,-16.91330175046022
176,733,Rua Nova Levada Cavalo,,32.651401429778076,-16.925350629731998
783,CF24,CAM Seara Velha  5A,,32.7159729003906,-16.9651508331299
760,CF31,Levada Curral das Freiras,,32.71640040097375,-16.966674762843088
946,S306,Ribeira das Cales-Zona 39,,32.70040963663851,-16.90379871544326
917,S314,Lombo Galego-Ribeiro,,32.7750147710474,-16.873001013427285
847,S238,Centro Saúde São R Faial,,32.7682838439941,-16.8573360443115
24,S141,Jogo da Bola-Miradouro,,32.82157133147314,-16.904989009961977
18,S142,Pico Tanoeiro-Santana,,32.818195920568975,-16.887391507656613
11,S143,ESTR do Jogo da Bola  4A,,32.82024062391787,-16.907019841306177
9,S145,Jogo da Bola-Moinho,,32.81985114447773,-16.90987361476929
78,S404,Lombo Galego-Escadas,,32.772106158230756,-16.874992931650258
75,S407,CAM da Silveira  8A,,32.80569285915424,-16.887358879244562
74,S408,Fajã da Murta  2A,,32.76619427880866,-16.87590265088229
63,S409,CAM da Silveira  9A,,32.80818097780644,-16.887262721501653
115,S137,ESTR do Jogo da Bola  2A,,32.82426147564234,-16.904206767348192
399,623,Beco da Pesada  D,,32.67676292858392,-16.938177059147414
1143,CF62,Pico Furão  3A,,32.7431983947754,-16.9650802612305
1114,CF7,Miradouro da Malhada,,32.70130799436133,-16.958597618280088
1056,S10,Santuário-Achada Marques,,32.7970657348633,-16.9051380157471
1126,S101,Lubriana-Santana,,32.80181154593689,-16.87894073872355
1125,S103,Centro Cívico Santana,,32.80292825803586,-16.881081260447893
1174,S11,RIB Frio-Viveiro Trutas,,32.73493434176964,-16.886494058863516
1180,S125,Antes do CZ da Ilha,,32.81475449792001,-16.900374173245694
1167,CF34,ESCL Curral das Freiras,,32.72244788524675,-16.965743326572408
1152,S132,Depois CZ para a Ilha,,32.814697265625,-16.900541305542
1162,C76,ESTR do Santo da Serra,,32.70619924413247,-16.833732949084105
1160,C77,ESTR do Santo da Serra,,32.706080252337074,-16.833931383753992
183,1345,Rua Ponta da Cruz  S2A,,32.634288566692625,-16.946666167575312
691,S6,Cabeço Alto-ACH Marques,,32.805821318402195,-16.908183785742683
686,S60,Depois Cabanas-Zona 28,,32.82311971472536,-16.9382755421614
679,S61,Moinhos-S Roque Faial,,32.77848675358947,-16.846750131051344
678,S62,Felpa-ER 101  1A,,32.822006804910146,-16.937827116184028
785,S76,Felpa-Tanque de Rega,,32.82593411171946,-16.917891366815986
786,S77,Tojal-Diferença,,32.78791497776138,-16.855337134774544
787,S78,Felpa-ER 101  2A,,32.8257827758789,-16.9161720275879
62,S41,ESCL Primária São R Faial,,32.767302635385605,-16.857695823819892
61,S410,Fajã da Murta  3A,,32.767033785794986,-16.87574618542351
56,S411,Casa do Povo-Silveira,,32.80955361677183,-16.886893706389703
49,S413,CZ da Silveira-Saída,,32.809451386066314,-16.884787789790945
48,S415,Entrada para a Ilha,,32.81496496717451,-16.901195597532283
276,C140,Serragem da Nogueira,,32.6683692932129,-16.8425598144531
324,888,Papagaio Verde  Viaduto,,32.64738069887954,-16.95324588496267
318,C240,ESTR Gaula-Fonte Tabaiba,,32.67153924368059,-16.812105696854655
337,C241,Serragem de Gaula,,32.68012389380982,-16.826576333278748
1237,C1,Depois da Cornélia,,32.667069250940244,-16.866962147817887
1534,1216,Rua Max  D,,32.66242626483811,-16.932835567861083
2296,125,Jamboto,,32.670005754803306,-16.94233824865023
2272,36,CAM Amparo  LEV Piornais  D,,32.643196105957,-16.9443798065186
2279,363,CAM Curral Romeiros  S2A,,32.66885020285441,-16.889346181283777
1747,554,Chão Marcos  Corj Fora  D,,32.67664827611301,-16.910947031563897
1754,564,CAM Saltos  D1A,,32.66909479627675,-16.916941163536485
1672,878B,CAM Três Paus  D1A,,32.671368162658,-16.954577108862185
177,1351,Ilma  T-02,,32.64146779942355,-16.949516738974648
2149,293,Antes Escola Salesiana,,32.654946446014,-16.896999428200594
195,S299,Lombo de Baixo  1A,,32.77694083516293,-16.856389154958986
251,1273,QTA Rocha  T-40 ,,32.64760688500809,-16.879231350782952
731,S5,Ribeira das Cales-Zona 22,,32.7003784179688,-16.9037494659424
840,S272,Lombo de Cima  4A,,32.769562359168795,-16.86584135424375
835,S274,Lombo de Cima  5A,,32.768141642865395,-16.868563515037035
308,907,Ponte Vasco Gil-Zona 40,,32.68279156591389,-16.951575623365418
316,909,Depois Vasco Gil  T-10,,32.68368634710117,-16.952182179242833
1215,C168,R dos Vimieiros,,32.66895764381527,-16.844911167999904
1564,1202,Bairro São Gonçalo  D,,32.648182288008485,-16.880782286152016
1567,1204,ESCL Básica S Gonçalo  D,,32.649158702289775,-16.88116053015938
2287,1233,Escola do Galeão  S,,32.66973615022296,-16.929006787649186
1854,140,Igreja São José  D,,32.65775948720326,-16.920938358656187
1861,142,Depois da Brisa,,32.65813644564632,-16.920051891085617
1598,1086,Monte  Centro Saúde  D,,32.6705782019569,-16.90827884366139
2242,1123,Rua do Paiol  S,,32.654103466549685,-16.91893264078936
2463,1156A,AV do Amparo,,32.64130819184991,-16.94802511266621
2482,1371B,Rua Nova Três Paus  S3A,,32.667022,-16.955845
2483,1371C,CAM Três Paus  Viana  S1A,,32.6676690480507,-16.956143946682257
2484,1371D,CAM Três Paus  Viana  S2A,,32.66884614434487,-16.955601476831482
2533,1158A,Curral Romeiros  D2,,32.6756737633756,-16.89177983486114
151,603,Depois CZ CAM Monte  S,,32.669394556651795,-16.903801953555615
1131,CF61,Pico Furão  2A,,32.74095369046399,-16.967899296370575
1130,CF63,Pico Furão-Final,,32.74470302888665,-16.963750257841998
1127,S100,Igreja de São Jorge,,32.82802291350009,-16.90657777733671
543,C47,Depois Estação de Serviço,,32.689512160905146,-16.845202096026807
287,C224,ESTR Gaula  2A,,32.67604712165859,-16.820614156070498
2285,1237,CAM Lombo Jamboeiro  18,,32.672060384944,-16.93252626191382
2284,1239,CAM LMB Jamboeiro  Doca  S,,32.6729816568018,-16.932591369287824
1715,807,Entrada Bairro Ajuda,,32.63920562090505,-16.934826960649712
2320,781A,CAM Trapiche  S1A,,32.678835647825636,-16.94629781681192
2318,781B,CAM Trapiche  S2A,,32.68042518447914,-16.946565647671864
2308,781D,CAM Trapiche  S4A,,32.682805806432214,-16.94698804090779
2319,781E,CAM Trapiche  S,,32.6857757568359,-16.9471874237061
1046,781O,CAM Trapiche  S5A,,32.68459029446804,-16.947043772722374
1047,782,R Velha Ajuda Tropical  D,,32.63906919274871,-16.933042647974958
2264,783,Quinta Magnólia  S,,32.643462435032546,-16.925194702738455
2263,784,Saída Bairro Ajuda,,32.63913450155139,-16.93475774672287
2262,784A,Capela da Ajuda  D,,32.63778488108089,-16.939267416242313
1530,1193,Caminho do Meio  S1A,,32.66820964815507,-16.888737270415756
1531,1194,Caminho da Quinta  D3A,,32.6615354494832,-16.92594609032791
1532,1195,Caminho do Meio  S2A,,32.66924337288933,-16.88751885979614
1557,1196,Caminho da Quinta  D4A,,32.66119243919603,-16.924967922837894
2473,920A,Final ESTR Laranjal  S,,32.67555760278163,-16.94936092635154
2535,354A,Ent R Santa Isabel  D,,32.6572825266692,-16.88904992009851
2238,674B,Igreja STO António  S1B,,32.6637001000601,-16.939386276456815
1335,1363,Rot do Amparo  T-45,,32.646945466091324,-16.941629528894254
2454,725,Rua da Quinta do Leme,,32.66150546452909,-16.935702877523944
206,S45,Água de Alto-São R Faial,,32.76989977960288,-16.856252882719296
215,S381,CAM da Silveira  4A,,32.801812670891714,-16.892357082239233
238,S127,Ribeira de São Jorge,,32.81790043547305,-16.89953907351957
240,S131,São Jorge-Jardins,,32.82538567199412,-16.901061767204425
237,CF20,Levada Curral das Freiras,,32.7163276672363,-16.9666996002197
592,878,ENT Três Paus Viana  D,,32.68008200703905,-16.952998265431564
727,CF18,Antes Levada do Curral,,32.71590242490569,-16.967423077164415
722,CF19B,Largo do Colmeal  1A,,32.728413571795016,-16.96689257093402
721,CF19C,CAM do Colmeal,,32.7311372826788,-16.967967738212124
620,S156,Lubriana-Santana,,32.8015670776367,-16.8788223266602
1544,1212,Piscinas  D,,32.665124886211366,-16.93402177492913
2283,124,Antes Encontro S Roque,,32.67190735161052,-16.924134722106135
2297,1249,Caminho da Quinta  S1A,,32.66020983996992,-16.923652492618984
2292,1257,Caminho da Quinta  S5A,,32.66223720722158,-16.926743497836316
1487,463,Ponte CAM Ferro  S,,32.6652336120605,-16.9070224761963
1484,464,ENT R ENG Amaro Costa,,32.65966565858206,-16.904058282019815
1456,376A,Saída do CAM QTA Palheiro,,32.66184798272248,-16.871782981938136
1461,376B,CAM QTA Palheiro  Padaria  D,,32.663379232585946,-16.86966407644119
1462,376C,QTA Palheiro  Blandy  D,,32.6630783081055,-16.8685932159424
1463,377,Pestana Júnior  S,,32.66006662377956,-16.90017190174893
2166,1118,Centro Saúde S Roque  D,,32.670161932964994,-16.92785359631996
734,525,Antes Rib João Gomes  S,,32.66150261237036,-16.900369970375134
728,CF19D,Ponte do Colmeal,,32.73536058081906,-16.96907086220453
746,CF19E,CAM do Colmeal,,32.73120107058786,-16.968086332480233
747,CF19F,Largo do Colmeal  2A,,32.72840654835381,-16.96698764547979
90,CF40,Saída Eira do Serrado  ,,32.70766739269728,-16.95974235251525
91,CF41,Depois Ponte da Terra Chã,,32.71275758384786,-16.971526664267362
96,CF46,Furna-Ribeira da Lapa,,32.699146270752,-16.9532070159912
94,CF47,CAM Seara Velha  4A,,32.7116896760702,-16.973208790689526
447,394P,Palheiro Ferreiro  APS  D,,32.66373876661466,-16.87068552282477
1132,1197,Caminho do Meio  S3A,,32.66998632130148,-16.88654339214606
1546,1222,R Padre E Pereira  D1A,,32.65775143012875,-16.929900358869528
1767,241,Autosil  Bica Pau  S,,32.65419750552626,-16.87757032757886
1763,245,Estrada Camacha  S1A,,32.65774183005972,-16.875552399059806
1770,248,ESTR VISC Cacongo  Antes ESCL,,32.657903047794484,-16.895093065367636
2257,253,R Pedra Sina-Conservas 1A,,32.652774993946906,-16.888498183850732
1882,1305,R QTA Cedros  Creche,,32.658801190145105,-16.930378059782477
1658,1077,STA Quitéria  Frutas,,32.66298090956566,-16.95437111273859
2539,1336,Azinhaga Poço Barral  D,,32.653417031847674,-16.943502013960753
2541,981L,Rotunda Cota 500,,32.67907953917332,-16.948693590243966
1337,257,Entrada R Murteiras  S,,32.65492386555016,-16.886051406342148
1361,258,Início Rua COR Cunha  D,,32.65372015790179,-16.898077167103565
1360,259,APS Canto Muro  S,,32.655960994316764,-16.884209750323212
1891,477,Rua de São José,,32.65470880376282,-16.903252867877328
748,CF19G,Saída do Colmeal,,32.72084267920846,-16.967161003279195
667,C32,Antes da Igreja Velha,,32.68233709231047,-16.846388879556848
644,C40,RIB Porto Novo-Eira Fora,,32.69181609265865,-16.85276162457433
651,C42,Antes RIB Porto Novo,,32.69179250171309,-16.85132245663827
650,C43,Depois RIB Porto Novo,,32.69174821356613,-16.851527132987172
794,S223,Arco S Jorge-Miradouro,,32.82671454643529,-16.95393813354016
827,S264,Casa de Chá do Faial,,32.775681189498506,-16.857682460482085
825,S266,Lombo de Cima  1A,,32.7734991932128,-16.860877936176937
38,S291,Lombo de Cima  3A,,32.7710762023926,-16.8635425567627
619,S158,Depois ENT ESC Santana,,32.799367753920706,-16.87744895081453
602,S180,Tojal-Diferença,,32.787959791542114,-16.8552468959534
1128,S102,Freguesia de São Jorge,,32.82668456895839,-16.906578443732904
464,946,CAM Curral Velho  D2A,,32.67973746967,-16.94330106482953
514,957,CAM Cemitério  S,,32.67028618241924,-16.938605985509046
1383,411A,Entrada QTA Palheiro,,32.6617796016193,-16.871794949041195
1405,412,Viaduto Cota 200  D,,32.66336254547289,-16.90116485685096
1389,323C,Junta Freguesia S Gonçalo  S,,32.64934574875495,-16.883017654128945
1390,323D,Quinta da Rocha  T-40,,32.64676569729978,-16.88564897473093
1391,324,CAM Curral Romeiros  D5,,32.667964378723745,-16.89121988936962
1392,325,Nazaré  45,,32.6479232788564,-16.9393554756978
1398,326,CAM Curral Romeiros  D4A,,32.66884732233066,-16.889423787575563
752,CF33,Depois Levada do Curral,,32.7159080505371,-16.9673500061035
751,C280,CAM do Rochão-Abrigo,,32.692711408070586,-16.864737481050337
626,S170,LEV Serra Faial-Zona 27,,32.789042790399265,-16.861022868734477
604,S182,Covas-Faial,,32.78957699414572,-16.854805687817805
123,606A,Junta Freguesia São Roque  D,,32.67126467520187,-16.92219484656737
126,608A,Água Mel  ESCL Galeão  D,,32.669729597689845,-16.926923773723242
127,609,STA Teresinha  Babosas  S,,32.66943836185109,-16.900001590439086
537,C215,ESTR Gaula-Fonte Tabaiba,,32.6714166978282,-16.81224629410503
536,C216,Igreja de Gaula,,32.67618737845772,-16.82483140762561
1491,467,Piedade  S,,32.6666016643854,-16.911419401819945
1377,45,Simplicio P Gouveia CGD,,32.63797292288373,-16.9323368836989
1368,442,R Nova Pedro J Ornelas  D,,32.657687361199216,-16.90447367723366
1367,443,Rua Pedro J Ornelas  Pena,,32.6569023132324,-16.9040565490723
1283,444,Antes Rua STA Luzia,,32.65720770212509,-16.907736040072606
557,450A,Rua Cidade Santos  D4A,,32.66289211058326,-16.915038403821477
1404,413,Entrada QTA Palheiro  S,,32.6621244335219,-16.872016674544238
1403,413A,Estrada Camacha  S2A,,32.66320485449462,-16.87211705149881
1410,415,Estrada Camacha  S3A,,32.66473823095262,-16.872240872782285
1411,416,ESTR Livramento  Ponte  D,,32.666023430232826,-16.901694764254138
554,352,Igreja Boa Nova  D,,32.657653408886986,-16.88940969920639
1583,233,ESTR Aeroporto  Neves  S,,32.64981317535657,-16.87359356519981
1586,236,Escola do Faial  D,,32.653483325918515,-16.89034415077887
1846,239A,ESTR Camacha  Bica Pau  S,,32.65522270680535,-16.878802266553112
2457,616,Rua Cidade Santos  D1A,,32.66645145436162,-16.915970081040243
2481,1371A,Rua Nova Três Paus  S2A,,32.66571061680801,-16.954630408683173
755,C284,ENTRONC para RIB Serrão,,32.6882934570313,-16.8521118164063
764,C289,Antes da Igreja do Rochão,,32.692669584230885,-16.86265342342234
711,C292,Igreja do Rochão,,32.69203608808422,-16.859697752376935
661,C30,CAM Ribeiro do Louro  3A,,32.682756707531354,-16.826980786641823
670,C305,Vereda Ladeira-RIB Serrão,,32.69334249925984,-16.851995476564184
791,S217,Arco S Jorge-ER 101  7A,,32.82560294488618,-16.94880334703878
793,S222,Terreiros-Zona 26,,32.7764434814453,-16.8480205535889
795,S224,Depois Escola dos Moinhos,,32.774341497024,-16.850529310673714
518,960,Beco da Pesada  S,,32.676715980729924,-16.938241893681287
1379,447,Rua Pedro J Ornelas  Final,,32.659696923953284,-16.902717278745165
1378,447A,Autosil  Furado C 33  S,,32.660268133840205,-16.902110634600987
1380,449,Autosil  Furado,,32.660845761847035,-16.902232126222565
2443,40,CAM Amparo  Vila Rosa  D,,32.64551125414868,-16.942409370011205
2444,400,Rua Pedro J Ornelas  D3A,,32.653988193901505,-16.905151967342572
2446,403,Boa Nova  BC Chapeleiro,,32.66012006072071,-16.880596173739164
2452,404,Colégio STA Teresinha  D,,32.656314894354445,-16.90443063237049
2451,405,Telheiro de Zinco  S,,32.660627360322124,-16.878360182533225
2450,407,ESTR Boa Nova  BMW  S,,32.66131205808306,-16.87648935715482
2448,407A,Antes Lombo da Quinta,,32.66117108836481,-16.875113810920055
1400,410,Furado,,32.660919159629856,-16.90232888050149
1407,411B,CAM QTA Palheiro  Padaria  S,,32.66339693562074,-16.869559892701073
1406,411C,QTA Palheiro  Blandy  S,,32.66296711511885,-16.868508300207353
1596,340,Pestana Júnior  D,,32.66021471065686,-16.90030595748635
1863,134,Depois do CAM Quinta,,32.662812751609174,-16.924716797021098
250,126,João A Freitas  191  D,,32.67094469230916,-16.922762177611997
405,1281,Escola Ângelo A Silva,,32.6593246459961,-16.9086437225342
690,S539,Arco S Jorge-ER 101  1A,,32.821966826413416,-16.94799035244416
802,S226,CAM do Serradinho,,32.77327250468313,-16.852321135522978
803,S228,Miradouro dos Palheiros,,32.774693214231526,-16.852570200964138
598,S178,Depois da Diferença,,32.78610224219272,-16.857505396607934
122,607,Ponte Ferro  S,,32.67067992126093,-16.900934496835383
391,536,CAM dos Saltos  D,,32.67353326926133,-16.907761903324257
1029,915,Casas  S,,32.687097205006566,-16.95320945468728
957,862,Depois CZ Quebradas,,32.649707386426336,-16.956928435018938
963,865,Fábrica Blocos  S,,32.645133972168,-16.9619007110596
1001,922B,CAM Barreira  N 180  D,,32.68266534984604,-16.94952798513802
1003,922D,CAM Barreira  D3A,,32.679485699222305,-16.949481563258665
1464,430,ESTR Livramento Depois CZ,,32.6672198100996,-16.914937334499353
1470,431,Campo 1 Maio  T-36A  Z 24,,32.66555930709746,-16.866159435204533
1468,434,Rua da Pena,,32.65593966648715,-16.90279632814868
1466,435,Palheiro Ferreiro  T-36,,32.66273225113211,-16.865549088658998
1465,435A,Lagoas Palheiro Ferreiro,,32.66264913352519,-16.865417075140833
1421,436,Alto da Pena  D,,32.654855696448514,-16.90235795519092
1420,438,R Silvestre Q Freitas  D2A,,32.65557432207007,-16.90191807707163
1419,439,R Pedro J Ornelas  Início,,32.6542159503239,-16.9050133030196
1858,135,Campo do Marítimo  D,,32.67188883238362,-16.936151573350916
1559,15,G N R,,32.6471405029297,-16.9075393676758
1328,281,Socipamo  S,,32.67115899657309,-16.916483435018165
1364,262,Escola Salesiana  D,,32.65625355725284,-16.896720850608393
1485,47,Rampa do Lido,,32.63851389399815,-16.934630697215002
714,CF1,Estrela-Zona 21,,32.68893116665216,-16.954269122852367
886,S84,CZ para Vigia-São Jorge,,32.82812759320093,-16.910073398080495
887,S85,Levada de Alto,,32.786765002259415,-16.860027126171378
888,S86,ESTR do Farrobo  1A,,32.82838322346123,-16.911498229526448
892,S88,ESTR do Farrobo  2A,,32.82920409170524,-16.913144713068775
894,S89,Cortado-Santana,,32.7957382202148,-16.8663787841797
294,C236,Centro Saúde de Gaula,,32.671679935561194,-16.81411693841547
277,C139,Gaulês-Zona 24,,32.66714593170722,-16.836401839184923
273,C142,Bairro da Nogueira,,32.67029817453979,-16.845279766023904
457,941,CZ CAM STO Amaro  S,,32.659224330971185,-16.94452401064009
515,961,CAM Velho da Quinta  S2A,,32.66470447278328,-16.92564606013839
504,962,Depois ESCL LMB Aguiares,,32.67487123506087,-16.938858394964985
1217,C175,Carreiras-Sosousas,,32.680297634751675,-16.87250134969408
1758,562,CAM Saltos  D2A,,32.668160276988324,-16.91743054138513
1737,568,Sanatório João Almada  D,,32.6692622268934,-16.90523877035925
2303,691,APS Basilios  S,,32.6604468919315,-16.93155426858279
1474,470,Antes CZ R Comboio  D,,32.66071472970102,-16.908636193167464
1375,450,Rua Cidade Santos  D3A,,32.66425091785313,-16.915002918796556
1282,451,Viaduto Cota 200  S,,32.66340022385407,-16.90102342380545
1980,296,Rua Murteiras  Padaria  D,,32.656477778989334,-16.888245221540306
1979,296A,Saída Rua Murteiras,,32.65812271711738,-16.890468088742093
1977,30,Madeira Palácio  D,,32.63857565328651,-16.94651018787135
1976,300,3 Travessa Transval  S,,32.66047768945519,-16.885318041286723
1981,301,Rua Bela S Tiago  S1A,,32.648664668549415,-16.901705741174563
1982,302,Travessa do Pomar  S2A,,32.661701937168466,-16.886012740479405
1983,303,Rua Bela S Tiago  S2A,,32.648353067916176,-16.898992587303916
144,591,CAM Saltos-Beco,,32.668204703461605,-16.917348524601277
404,631,CAM LMB Aguiares  Miradouro,,32.680154502057874,-16.938444004912352
376,636,Antiga Olaria Achada,,32.657304353191705,-16.921911239315737
409,38B,CAM do ENG Velho  Ford,,32.64502727099817,-16.938335739014235
410,39,Hotel Miramar,,32.64170777910821,-16.924241480162216
435,390B,CAM São João Latrão  D5A,,32.66602619811795,-16.88008767163051
434,390D,CAM São João Latrão  D3A,,32.66494296565565,-16.880369752837826
419,85,CAM Virtudes  S,,32.65088938905187,-16.931688093488468
994,680,CAM STO António  BC ESCL,,32.66135743007332,-16.933430396669387
984,836A,Cimentos Madeira  D,,32.64689108647876,-16.966474471678332
476,C154,CAM da Achadinha,,32.68081770959544,-16.854950574537533
1089,933,R Caridade Pestana  S4A,,32.6565704345703,-16.8746891021729
2351,702,CAM Azinhaga  S1A,,32.66993779206512,-16.93394793989613
2353,704,CAM Azinhaga  S2A,,32.66811910598738,-16.932855490437206
1513,161,Depois R Padre Andrade,,32.66298696040261,-16.924619581228608
1512,163,Depois Muro Coelha,,32.662407880911026,-16.92343405996664
1504,177A,Galerias D João,,32.65665112933552,-16.915012372742872
2796,563A,ESTR Marmeleiros 223  S,,32.67310135002165,-16.909954704743733
182,51A,Antes Forum Madeira,,32.63579700788653,-16.941815780787817
1772,263,QTA Esperança  S,,32.650790484476936,-16.8926345830146
1365,265,CAM Palheiro  S,,32.65193418422854,-16.891419670918026
1775,266,Escola Jaime Moniz,,32.64871881738613,-16.901655345732365
1774,267,Urbanização do Faial  S,,32.6526985168457,-16.8904228210449
1776,268,Rua Bela São Tiago,,32.64836938645996,-16.89868171726632
1988,31,Galerias,,32.646680708145475,-16.910916956162747
2137,53,Forum Madeira  S,,32.6357688903809,-16.9437465667725
742,C92A,Achada do Barro-Escola,,32.72534338245687,-16.831479822201032
387,533A,ESCL Bartolomeu  S,,32.65991379128795,-16.914305972010208
1175,S111,Faias-Santana,,32.812331349298034,-16.88529467509322
1172,S112,ESTR do Jogo Bola-Moinho,,32.819906423630954,-16.91006516086441
349,C213,Associação R de Gaula,,32.67308578507142,-16.810416878773463
1749,557,Monte  Miradouro  S,,32.669261331553855,-16.91001974338379
1750,558,Pedreira  D,,32.667665773642874,-16.916148816384762
1752,56,CAM das Virtudes  D,,32.65080193034583,-16.931761660581614
1059,560,CZ CAM Saltos  D,,32.6669692993164,-16.9177303314209
2380,743,CAM Pilar  A Nossa Casa,,32.65556598329187,-16.933078408115076
2397,743B,Rua QTA Leme  S2A,,32.65943443951228,-16.936312061267227
2427,750A,CAM Trapiche  D1A,,32.68448500551706,-16.94713989864762
2434,750D,CAM Trapiche  D4A,,32.6800117492676,-16.9464931488037
2416,752,ESTR Laranjal  Oficina  D,,32.67746896523692,-16.945060961588187
2410,754,Saída do Curral Velho,,32.67682740555762,-16.94394181171427
2261,741,CAM Pilar  Bar Janota  S,,32.65510907110046,-16.932270095560185
1987,179,Padaria Marques,,32.65430724221921,-16.913305153482998
1974,17A,Rua Conselheiro,,32.64666921016881,-16.911726986331285
1961,180,Depois CZ ESTR Camacha  D,,32.64907471631063,-16.878121567131295
1971,189,CAM Vale das Neves  S,,32.647511736113955,-16.869015489084287
1969,192,Rotunda Cancela  T-38,,32.64793446619275,-16.86061354882718
741,C95,Depois ESCL Achada Barro,,32.726210005941155,-16.829964225447135
716,C98,Depois Junta Freguesia,,32.72542842819389,-16.822279510388384
715,C99,Depois Bomba Gasolina,,32.72538319515573,-16.822606456697027
757,C286,Borracheiro-Tanque Rega,,32.68890310629556,-16.85391419734457
642,C39,Piquetes-Rochão,,32.68676173228388,-16.850745039660314
403,626,APS Penteada  D,,32.66410209905737,-16.928468878336286
1070,627,LMB Aguiares  Convento  D,,32.67859742781984,-16.93836523699085
1066,630,Tecnopolo  D,,32.66005322910356,-16.925442354209373
951,683,Pico S João  Ferreiras  S,,32.6536590826622,-16.92394502735375
497,964,CAM Lombo Aguiares  S5A,,32.67279735781888,-16.938447266769806
489,967,Frente ao Modelo,,32.66017020675671,-16.919154564028428
1712,81,Virtudes,,32.65042544809792,-16.928135198568352
2398,743C,Rua QTA Leme  S3A,,32.66126199120146,-16.93724056536896
2423,744,CAM Pilar  Terra Chã,,32.653701886661075,-16.92904199578757
2422,744A,Ponte RIB Seco  D,,32.65145760608601,-16.92627874455735
2421,746,CAM William Clode  Escola,,32.66110521641969,-16.944064712048135
2418,748,CAM William Clode  D,,32.66214456154352,-16.943154906857007
2420,749,Depois Casa STO António,,32.65591937932102,-16.938806298274805
1993,206,Autosil  Bica Pau  D,,32.65456103985988,-16.877762964975854
2144,1134,CAM Meio  Entroncamento,,32.667939991328396,-16.889031203340842
2312,770,Quinta Magnólia  D,,32.64333726438441,-16.925197452188765
2315,775,Depois CZ Laranjal,,32.6749785225983,-16.943214240149228
2322,78,Pico dos Barcelos  D,,32.65910137860256,-16.941283819942704
2321,780,Rua Velha Ajuda  D,,32.638820124163715,-16.931258857003066
1644,736,Antes CZ CAM DR Barreto,,32.65625181905214,-16.93587929358686
1633,736C,Rua DR Barreto  O Ninho  D,,32.650787395205775,-16.935006539230645
2438,4,Rua Artur Sousa Pinga,,32.647394379291114,-16.903869738952118
555,356,Antes Viaduto Boa Nova,,32.658287421834224,-16.88648498966093
1848,138,Muro da Coelha  D,,32.660330926351044,-16.922819849916934
2240,766,Rua das Virtudes  D1A,,32.64820665209807,-16.93013744367483
2469,778,ER 103  Antes Lombos,,32.67914273224307,-16.906784383926986
170,776,Antes ROT dos Barreiros,,32.647121377278474,-16.93004296731179
2522,546A,CAM Corujeira D1A,,32.67910739904055,-16.908061974123534
1986,310,Rua Azevedo Meneses  D1A,,32.65996410201415,-16.895295145418928
1908,230,QTA Esperança  D,,32.65081353424426,-16.892736214339358
1906,571,Monte  Tílias Para Monte,,32.67697378927277,-16.906174545734633
1909,573A,Monte  Tílias Para Lombos,,32.677356356823395,-16.906020199307026
1910,573B,Monte  Entrada Lombos,,32.677963942510395,-16.907099017254794
1912,573D,CAM Lombos  Antes Pintor,,32.68054696049747,-16.90660254964883
1917,576,STA Teresinha  Babosas  D,,32.66959222617061,-16.900262077942177
1914,577,CAM Corujeira Dentro  S2A,,32.67916331076771,-16.909194218727126
1060,578,Depois Serragem  Babosas,,32.6709365897903,-16.899104487165786
1913,578A,R Portada STO António  D,,32.67056993298812,-16.899701844630297
562,530,Entrada Sanatório  D,,32.67006356342927,-16.908227107488045
1902,580,CAM Lombada  Serragem  D,,32.6725658389712,-16.899236907553018
5,S44,Arco S Jorge-ER 101  3A,,32.82757536798034,-16.94311840437228
204,S49,Rua D Manuel Cabral  1A,,32.7723922729492,-16.8551006317139
198,S50,Arco S Jorge-ER 101  6A,,32.82489544713874,-16.943181004650786
191,S51,Rua D Manuel Cabral  2A,,32.773113683993664,-16.854064764149896
193,S297,Casa de Chá do Faial,,32.77568359816392,-16.857572649470853
1279,S385,CAM da Silveira  6A,,32.80387605171466,-16.895647391594768
929,S317,Depois ENT Corujeira Cima,,32.77700021594466,-16.867723556680822
926,S318,Antes ENT Corujeira Cima,,32.776948574973275,-16.86780396443483
927,S323,CAM do Lombo Galego  2A,,32.77274536375042,-16.873316955866155
902,S329,Pão Caseiro-Santo António,,32.799313213488446,-16.871545097105184
901,S33,Antes Achada do Folhadal,,32.76247047380915,-16.862519914490395
899,S331,Santo António-Fonte,,32.801723577945765,-16.87092748995357
898,S333,Santo António-Capela,,32.804696433588276,-16.871365591553058
630,S166,Eiras-Santana,,32.79432045909639,-16.868580316387817
632,S168,Cortado-Santana,,32.79552248779503,-16.866359302178758
105,S196,Antes Longueira-Moinhos,,32.778326811955004,-16.84639281146617
104,S197,Antes Cabanas-Zona 29,,32.823180516498226,-16.938222044471363
1679,878E,CAM Três Paus  D3A,,32.66922425254057,-16.9542745793131
1700,88,Antes CZ Courelas  D,,32.66690380020426,-16.94877061302327
1701,881,Campo do Marítimo  T-46,,32.6715774536133,-16.9361724853516
1896,581,Coruj Dentro  Reforço  S,,32.679113822577975,-16.91202806382978
189,S52,Arco S Jorge-ER 101  7A,,32.823798157294604,-16.944112730992664
579,9A,R 31 Janeiro  S,,32.64771402400435,-16.905334307433623
577,781F,CAM Trapiche  Entronca  S,,32.68590678794118,-16.948227587667215
718,CF13,Bar Serafim-C Freiras,,32.72186877461907,-16.963976175186886
719,CF14,Capela-Curral das Freiras,,32.714943275348666,-16.9693124505049
891,S9,Poiso,,32.71217028895415,-16.88819061125945
1065,S96,Estrada do Farrobo  3A,,32.83088993553083,-16.908272295504055
866,S98,Estrada do Farrobo  4A,,32.8295631408691,-16.9062767028809
895,S307,Lombo de Baixo-Degolada,,32.78568712108697,-16.851697970440235
922,S31,Depois Levada das Furnas,,32.7589477103265,-16.867175318584966
921,S310,Pocinhos-Zona 23,,32.67979219819493,-16.90591896317791
923,S311,Fazenda-Lombo Galego,,32.78321212707885,-16.860705605470237
920,S312,CAM do Lombo Galego  2A,,32.77260650941313,-16.87337207273832
906,S337,Santo António-Miradouro,,32.808446213034706,-16.872825231356742
806,S361,CAM Feiteira de Cima  6A,,32.79219772760147,-16.872896262476342
819,S371,Pinheiro  3A,,32.81029098129952,-16.88975424567017
818,S296,RIB Frio-Redondo,,32.74371256927249,-16.87890104864152
839,S270,Lombo de Cima  3A,,32.77115780361201,-16.86359653965956
1900,481,Alto da Pena  S,,32.6547214650299,-16.902424973889662
1897,482,D João,,32.6614608764648,-16.9188404083252
1895,483,R Silvestre Q Freitas  S1A,,32.655512034786945,-16.901837716586257
1894,484,Rua Arc D Aires  D1A,,32.66021556285137,-16.91872214479148
1901,485,R Silvestre Q Freitas  S2A,,32.656724158937095,-16.902170782769954
200,S300,RIB Frio-Viveiro Trutas,,32.735095694165295,-16.886413541134125
197,S303,Lombo de Baixo  3A,,32.77993058991887,-16.85243417310684
196,S304,Montado do Pereiro-Poiso,,32.708033335283886,-16.892142896921253
231,S201,Arco Pequeno,,32.82155769526257,-16.945561971723517
623,C269,Ribeirinha-Final,,32.67373783781521,-16.838257498280353
83,C274,Ribeiro Serrão-Término,,32.69000688565608,-16.845575211212452
581,C160,Ribeirinha-Muro Alto,,32.67135834905086,-16.840907597051846
593,882,Ponte Vasco Gil-Zona 23,,32.682717685538144,-16.951543435022568
589,742,CAM Pilar  Antes da BP,,32.65453708823121,-16.9299161935791
1666,574,Ponte Ferro  D,,32.670726473745724,-16.900965350544052
735,579,CAM Corujeira Dentro  S1A,,32.678488308484035,-16.91062949915625
768,CF19N,Ponte do Colmeal,,32.73541958998327,-16.969263220158453
761,C29,Antes do Largo da Achada,,32.67993066777499,-16.847155280087435
710,C293,Escola do Rochão,,32.69052681295713,-16.85757406053186
659,C297,Borracheiro-Tanque Rega,,32.688845196362074,-16.853924435897817
665,C313,ESTR Gaula  364,,32.67603108872229,-16.820468737337613
164,C114,Depois Bomba Gasolina,,32.65590575573734,-16.83864402799639
86,CF37,Capela-Curral das Freiras,,32.7149658203125,-16.9694137573242
1118,CF65,Pico Furão  5A,,32.740877942573604,-16.968044738264002
415,844,Hotel Orca Praia  D,,32.643857852577035,-16.959280813007542
418,849,Albatroz  S,,32.6492614746094,-16.9490203857422
964,671,Rua Brito Câmara  Leacock,,32.64798412784684,-16.915707846091156
1002,922A,CAM Barreira  D1A,,32.68350843007999,-16.94930657001994
979,922G,Entrada Trapiche  D,,32.675374298924666,-16.949732729230153
302,906A,CAM Cemitério  QTA Falcão  D,,32.667378399508195,-16.939766344988723
71,C59,Águas Mansas-Zona-36  25,,32.69395554963439,-16.837060585655408
82,C62,Sítio da Levada do Pico,,32.698127746582,-16.8382625579834
582,C202P,CAM do Boqueirão  6A,,32.691350564268156,-16.831730063183834
580,C147D,R Vimieiros-Bombeiros,,32.67006345103723,-16.84736845949619
576,638,Azinhaga São Pedro,,32.65628258971392,-16.92072350000939
745,C92,Sítio da Achada do Barro,,32.72202531096011,-16.831988750867037
723,C97,Rotunda do Santo da Serra,,32.72593620935419,-16.82657276896211
772,CF19I,CAM da Fajã Escura  2A,,32.73304549342303,-16.970900033752027
776,CF21,Igreja Curral das Freiras,,32.72035728934816,-16.96557522645062
780,CF22,Depois Levada do Curral,,32.71730326874365,-16.966803874916298
782,CF25,CAM Seara Velha  1A,,32.719054211604195,-16.964767452904816
656,C3,Antes da Madre Água,,32.6686224661974,-16.86805562415042
663,C301,Ponte Pau-Ribeiro Serrão,,32.69552635984093,-16.862194316001112
664,C303,Armazém-Achadinha,,32.68213326117196,-16.85589699278396
1940,490,Rampa D Manuel,,32.656893519528374,-16.91715611942841
1939,491,Antes CZ Rua Comboio,,32.658116655135466,-16.908423759482822
1938,491A,Depois CZ Torrinha,,32.65771844358241,-16.911129443230696
1945,494,Início R Sidónio Pais  D,,32.659159565882035,-16.901758796929723
1946,494A,Autosil  Furado C 33  D,,32.66059536292301,-16.90214081940651
1950,498,Antes Rib João Gomes  D,,32.66107908569625,-16.899511116288767
1948,499,Antes CZ LEV STA Luzia  S,,32.6605388247603,-16.908275512078735
1949,500,R Til  Antes CZ 31 Janeiro  D,,32.6553955078125,-16.9125556945801
1921,507,Rua LEV STA Luzia  S,,32.66049684417151,-16.9026567366209
223,310A,CAM Meio  Papagaios  D,,32.6611785888672,-16.895450592041
236,411,Lombo da Quinta  S,,32.660508315736365,-16.87406948442073
585,927,R Caridade Pestana  S1A,,32.6560233643445,-16.87643668024656
767,CF29A,Palácio S Lourenço,,32.64672657415056,-16.91062224773556
701,S555,Lombo Galego-Escadas,,32.772154367316325,-16.87496040598784
706,S559,Fajã da Murta  2A,,32.766409525793186,-16.876054645566402
705,S561,Fajã da Murta  3A,,32.765118976283716,-16.876127653886847
703,S563,Fajã da Murta-Término,,32.76346179626282,-16.875814371204886
1278,S375,CAM da Silveira  1A,,32.80563959895246,-16.887443504795034
842,S258,Lombo de Baixo  2A,,32.78003300164872,-16.852470492850244
14,S15,RIB Frio-Redondo,,32.743733561405,-16.878860889735112
21,S151,ESTR do Jogo da Bola  7A,,32.82565046086246,-16.910160804050317
20,S152,Rua Santa Ana-Santana,,32.806370363231544,-16.880911147637427
116,S203,Arco S Jorge-ER 101  2A,,32.82265871112407,-16.94657156091375
1268,944,CAM Curral Velho  D1A,,32.680653985527435,-16.943138070881417
1088,934,Encontro  S Roque  C-48,,32.67076092710587,-16.92085486747705
313,902,CAM Cemitério  D,,32.67036881094211,-16.938453973941147
305,904,CAM Cemitério  C Mármore,,32.66937485315481,-16.939617590064092
241,299,ESCL Jaime Moniz  Largo,,32.64927458108226,-16.902502495848893
1,1057,Caminho Novo Galeão  D4A,,32.673526763916,-16.9283123016357
406,1115,Rua Levada do Cavalo,,32.65418514629722,-16.92612435556548
229,369,CAM Curral Romeiros  S3A,,32.67601432178998,-16.889861109262828
225,S29,Levada das Furnas,,32.757458842831554,-16.867755592716808
230,S195,Depois Capela-RIB Funda,,32.8219848925768,-16.937763082251564
235,CF27,CAM Seara Velha  1A,,32.71586665672802,-16.9654326456705
584,996,CAM da Igreja  S,,32.66464812172698,-16.937795303238037
588,789,Rua Casa Branca,,32.642737750137094,-16.92709980769427
738,C9,Aldeia Paz-Vale Paraíso,,32.67143694478095,-16.863098161815408
726,CF16,Bar Ressaca Velha,,32.7156936145148,-16.96873274165863
724,CF19A,Entrada para Colmeal,,32.72096795131629,-16.9669668414464
784,CF26,CAM Seara Velha  6A,,32.71902095505155,-16.96471292982808
2114,422,Ponte CAM Ferro  D,,32.665158413987314,-16.907030641173368
2115,423,Tea House  CAM Pretos  S,,32.66529344032957,-16.87412626080487
2116,424,Seta  D,,32.666758250108224,-16.908689252738178
2122,425,Centro Hípico  S,,32.666815242416355,-16.877168937402736
2121,426,Piedade  D,,32.66672391716407,-16.91164221913646
2123,427,CAM São João Latrão  S1A,,32.66733256058202,-16.879555264986184
2120,428,Correios Livramento  D,,32.66610935635447,-16.913748105071242
2118,428A,Escola Piedade  D,,32.666446399460035,-16.91259347303592
2117,429,CAM São João Latrão  S2A,,32.66723225378003,-16.880762000214013
2124,429A,CAM São João Latrão  S3A,,32.66597217534881,-16.88014956065049
2141,429B,CAM São João Latrão  S4A,,32.66528064649201,-16.87976828900348
2142,429D,CAM São João Latrão  S6A,,32.665041602345575,-16.881430226859408
2215,429E,CAM São João Latrão  S7A,,32.66431506579772,-16.88153632110968
214,S459,CAM da Ilha  19A,,32.81403010761328,-16.90292081310235
220,S46,Arco S Jorge-ER 101  4A,,32.82771049580443,-16.942045352784493
221,S465,Centro de Machico,,32.717980785232044,-16.76754443326329
732,S463,Aeroporto-Zona 25,,32.689375458962466,-16.781673939588845
637,C38,Piquetes-Rochão,,32.68682860407771,-16.85065158991282
857,S250,Antes Levada das Furnas,,32.75886686676143,-16.86722953659472
19,S389,CAM da Silveira  8A,,32.805756173650586,-16.898417347825625
43,S393,CAM da Silveira  1A,,32.80565791307261,-16.898413744844323
80,S405,CAM da Silveira  7A,,32.80198737406156,-16.888393061562418
92,CF42,Miradouro da Malhada,,32.70118960285827,-16.95857473101568
98,CF43,CAM Seara Velha  2A,,32.712975401635205,-16.971641430514165
1146,CF57,CAM Lombo Chão  2A,,32.70644139887931,-16.975529589342795
443,393,Viaduto Boa Nova  S,,32.65723275866934,-16.88624446024677
1104,981B,CAM Barreira  S1A,,32.67772534193117,-16.949667951376732
1551,121,Depois CZ da Ladeira,,32.66955044928665,-16.946427813626478
1549,1211,Curral Romeiros  S5,,32.675555930210514,-16.891360028488613
1535,1215,Rua João Paulo II  S2A,,32.640438171510176,-16.931387307255285
2289,1243,LMB Jamboeiro  BC Canavial,,32.67490781548127,-16.933146382766648
1855,141,ESTR CMDT C Freitas  ESCL,,32.6708950061666,-16.931896861700988
1323,1035,CAM Igreja Velha  S2A,,32.674064733113525,-16.922407133441105
1320,1038,Estevão Neves  D,,32.66182110432035,-16.95191117495802
1319,1039,CAM Igreja Velha  S4A,,32.67573765006878,-16.923728442162794
1324,104,Rampa  Laranjal  D,,32.671799378261476,-16.939367623969844
1325,1040,Canto do Muro  T-34,,32.65546192394069,-16.883110919479197
1326,1041,CZ Cova,,32.67518088582303,-16.924691247350236
754,C283,Antes da Ponte Pau,,32.69457213772305,-16.857508597219248
1096,542C,CAM Lombos  Oficina,,32.680766292829254,-16.90697255484018
1109,546,CAM Corujeira  D1,,32.67693993788419,-16.908574913782736
1418,314,CAM Voltas  Dep Escola  D,,32.66412236603842,-16.893683720134483
1844,238,Antes Escola Faial,,32.65394980452039,-16.891243928736802
1860,143,Depois Ponte do Galeão,,32.67213451735723,-16.93156717933068
1862,144,Bairro dos Viveiros  D,,32.65869463618278,-16.919146518251058
1859,145,Galeão  São Roque  S,,32.67152841282188,-16.929626527398987
1873,148,Clínica STA Catarina,,32.65450880636999,-16.914165271022114
1517,150A,Tribunal  D,,32.65115619320979,-16.908670629107007
2143,1135,Monte  Centro Saúde  S,,32.67067898799958,-16.90827624377873
2196,1136,Lombo da Quinta,,32.660035191066775,-16.874451575409598
2197,1137,Nazaré,,32.64911187042673,-16.938239666704884
2198,1138,Rua Clube Choupana  D1A,,32.66516830664078,-16.8938283876773
2199,1139,Antes APS Canto Muro,,32.65654635117666,-16.884551660471136
2205,114,ESTR CMDT C Freitas  ESCL,,32.6708177212559,-16.931844309696814
2204,1140,Rua Clube Choupana  D2A,,32.66419631360433,-16.892084559964108
2206,1141,Pico das Romeiras,,32.66503330617126,-16.947512169616672
2203,1142,Rua Clube Choupana  D3A,,32.6637568440406,-16.891389362548733
2201,1143,Rua 4 Pico Romeiras  S1A,,32.66422942487015,-16.947868803621084
245,165,Muro da Coelha  S,,32.66050554650383,-16.922839479504784
750,C281,Estrada do Ribeiro Serrão,,32.69425894356312,-16.854887110534666
709,C294,Armazém-Achadinha,,32.68207464653416,-16.855951447629682
672,C295,Depois Escola do Rochão,,32.689496339834456,-16.85589942905239
668,C31,Largo da Achada,,32.67951334241151,-16.845515590274218
800,S229,Arco S Jorge-Laranjeiras,,32.82433679697806,-16.957285103457384
393,631A,CAM Lombo Aguiares  D4A,,32.681041955861666,-16.937853010246116
1106,544,CAM Corujeira Dentro  BC,,32.6765480041504,-16.9074287414551
941,678,Quinta do Leme  D,,32.66233652446141,-16.93548079986457
940,678A,Rua QTA Leme  D1A,,32.66134552748223,-16.937184750903803
1721,792,Hotel Panorâmico  D,,32.64280133971315,-16.931881909473955
2426,75,Hospital DR Nélio M  S1A,,32.647467685627255,-16.922871719303984
2317,781C,CAM Trapiche  S3A,,32.68135281378501,-16.946733564683775
2266,785,APS Magnólia,,32.64487121490922,-16.926417119814335
2346,701A,Rua DR William Clode  S,,32.6618984366959,-16.943862111164037
565,65B,CAM do ENG Velho  Prebel,,32.645005091294976,-16.938783339304607
1372,444B,Antes CZ Torrinha,,32.65765773920998,-16.911195183770907
1409,414,Quinta do Baltasar  D2A,,32.664905999032456,-16.90108638968969
1592,336,Azinhaga Ausentes  D,,32.6555023193359,-16.9246654510498
1591,337,3 Travessa Transval  D,,32.660520140930466,-16.885417398376028
1590,338,Mercedes  D,,32.65783623543867,-16.90039824040834
1985,24,Hotel Baia Azul  D,,32.63631698974689,-16.94035604112668
1975,240,Beco João Preto  D,,32.65511564387052,-16.8928663006088
1915,575,CAM Corujeira Dentro  S3A,,32.67718395330214,-16.908612910239906
556,429C,CAM São João Latrão  S5A,,32.665013737326944,-16.880251646209825
655,C31A,Igreja da Camacha,,32.67798365250745,-16.84556974034776
654,C33,Depois da Igreja Velha,,32.68255408480129,-16.846564598318665
648,C34,Levada da Serra-Rochão,,32.684438461388055,-16.849290431028912
124,606,CAM da Igreja Velha  D,,32.671184429130705,-16.921423329498698
388,532,Hospital Marmeleiros  D,,32.6716079711914,-16.9101314544678
390,533,Final Recta Til  S,,32.659391439161624,-16.91308821334191
1074,539,Igreja I C M  S,,32.66202133774123,-16.915143549952315
1099,54,Antes Rua Virtudes,,32.65023952280237,-16.929900306872682
1097,542,Tílias  Para Corujeira,,32.67711098640353,-16.906353412071603
1095,542A,CAM Lombos  Saída ER-103,,32.67798477335049,-16.90722469987704
1102,543,Monte  Penha França  S,,32.66364454261173,-16.918089931419395
962,863,Hotel Orca Praia  S,,32.644008319354334,-16.959984191441098
1004,922,Início ESTR Laranjal  D,,32.67557545594855,-16.949245763930072
991,922E,CAM Barreira  D4A,,32.67843759358438,-16.94974082336388
980,926,Bar Angola  D,,32.67165721481182,-16.94797669030548
1839,348,Cabeço de Ferro  D,,32.6589585059452,-16.893705765122956
2521,577A,CAM Corujeira Dentro S3A,,32.67903334587339,-16.90812562339485
2540,536A,ESTR Marmeleiros 223  D,,32.673196643144166,-16.90996099835551
549,211,Igreja São Gonçalo  S,,32.64983469417291,-16.882057409063385
713,CF10,CAM Seara Velha  4A,,32.71274967610009,-16.971445928380444
725,CF17,Bica-Curral das Freiras,,32.72161445256036,-16.966084304292497
773,CF19H,CAM da Fajã Escura  1A,,32.73406028134917,-16.97032064500776
162,C109,ESTR João G Zarco  1A,,32.649768548917,-16.849521707048872
569,C120,Antes da Tecnorocha,,32.6565254490375,-16.836946305999042
1186,C8,Depois da Madre Água,,32.66868716832967,-16.868085601899157
983,884,Antes da Vereda  D,,32.67968576126759,-16.950545624896012
524,C65,Curral Velho-LEV do Pico,,32.70113835272922,-16.83945243068208
468,C147C,R dos Vimieiros,,32.6689910888672,-16.8447895050049
467,C147E,R Estrelícias,,32.671222742721795,-16.847650277268706
481,C150,REST Casa da Avó,,32.67829255266757,-16.852462180985775
502,963A,Antes Eurocash,,32.66655110782942,-16.92457034617333
490,965,LMB Segundo  Eurocash  S,,32.667893906780094,-16.924116972400643
486,973,Rampa Santana  S,,32.665368646119575,-16.90509861987487
491,975,Livramento  T-23,,32.66648400051022,-16.905196134274338
500,981,Igreja da Graça  S,,32.673396582300576,-16.948571991842343
1093,981C,CAM Barreira  S2A,,32.678564981950096,-16.94964589605539
334,898,CAM Areeiro  Fab Blocos,,32.64526936898533,-16.955842662096707
320,90,Depois CZ CAM Ladeira,,32.66890523352575,-16.94829408302616
357,C247,Vereda Tia-RIB Serrão,,32.69459307129435,-16.853023899673946
1211,C163,CAM da Achadinha,,32.680893441941485,-16.854956894877898
1201,C193,Apartamentos da Azenha,,32.65265505067373,-16.84891050218493
1249,C200,Depois LEV da Serra Faial,,32.69322483632274,-16.83475751670022
239,S12,Silveira-Final,,32.80495225282672,-16.900587949101396
730,C94,Antes ESCL Achada Barro,,32.72623327918378,-16.8300708419839
729,C96,Rotunda do Santo da Serra,,32.72609057842954,-16.8266913806997
684,S74,Chão da Felpa,,32.826148541100174,-16.922541443826958
97,CF44,Ribeira da Lapa-Zona 21,,32.70342151250669,-16.953693176980117
1149,S109,Santana  Shopping,,32.80998696075131,-16.88420136938431
1169,S114,ESTR do Jogo da Bola  4A,,32.82018478681552,-16.90698129066495
1177,S116,ESTR Jogo Bola-Miradouro,,32.821545033105195,-16.904916351527586
1178,S119,CZ para QTA Furão-Santana,,32.82139872868625,-16.88844344621235
1031,C85,Antes das Quatro Estradas,,32.711021061079535,-16.83098240509515
1040,913,Antes das Casas,,32.68450517372381,-16.953936885414826
1022,917A,Depois Casas,,32.68928374666414,-16.95235748382292
997,917B,Casas  antes Estrela,,32.6911239624023,-16.953010559082
976,924,Igreja da Graça  D,,32.673465669035934,-16.948672152305072
981,928,Casa Velosa  Boliqueime  D,,32.67112902834974,-16.948972085223392
510,953A,CAM Cemitério  QTA Falcão  S,,32.667070957521894,-16.93958921830417
511,953C,Rua Campo do Marítimo  D,,32.666371698807204,-16.93748370006811
506,954A,CAM Lombo Aguiares  S1A,,32.68103710472365,-16.93791358550706
505,954B,CAM Lombo Aguiares  S2A,,32.68031048311855,-16.93834891964277
494,98,Jamboto  Romeiras  T-43,,32.670113125616766,-16.942724801675762
331,900,CAM Areeiro  Final  D,,32.6440477210468,-16.95527412456529
234,CF30,R ENG Ornelas Camacho  1A,,32.7196856919294,-16.964487073057917
740,C93,Sítio da Achada do Barro,,32.7220858459385,-16.831843367469123
777,CF23,Eira do Serrado,,32.710657123179935,-16.961880054334248
669,C307,Antes do Bar Borracheiro,,32.6916747105668,-16.867454044387785
641,C35,Levada da Serra-Rochão,,32.68457640559472,-16.849311472969745
612,S186,Antes Centro Saúde Faial,,32.79188225082314,-16.853782027207398
609,S187,Felpa-ER 101  2A,,32.82098873380075,-16.93160676072982
1153,S130,Ribeira de São Jorge,,32.81787777635026,-16.899673986411013
327,894,CAM Areeiro  Bela Vista  D,,32.6470947265625,-16.9591827392578
1710,805D,Escola Ajuda  S,,32.63912380224456,-16.94247529810472
2393,819E,Rua Colégio Militar  T-44,,32.644173934534436,-16.933485778159522
2392,82,Antes das Romeiras,,32.66156815404536,-16.94624930574129
2360,705,ESTR das Courelas  S2A,,32.66529866139739,-16.94515884184867
2355,709,Entrada Três Paus,,32.66882449370803,-16.94997511505588
2327,709I,CAM Três Paus  Escola  S,,32.67241287913023,-16.954302043595554
1884,718,TV Tanque  MadShopping,,32.66004635078982,-16.9512865917269
1637,722,Travessa Tanque,,32.65736017734785,-16.949183673628333
1636,723,BC Álamos  Piscinas,,32.665548537903625,-16.933667327789298
2148,649,Antes Tecnopolo  S,,32.65971051713113,-16.924198139867045
1438,657,Atrás APS Penteada  S,,32.66466373337608,-16.92951019547228
1308,980,Rotunda D Teodoro Faria,,32.64778688117129,-16.939120641163576
578,C157,Depois da Padaria,,32.6765480041504,-16.8520374298096
770,CF2,Depois ESCL Seara Velha,,32.710290984115126,-16.973194999433744
763,C287,CAM do Rochão  S,,32.69261336253556,-16.864730468860166
762,C288,Antes Escola do Rochão,,32.68953478668063,-16.855975673934008
759,C290,Escola do Rochão,,32.690579701740404,-16.857504653389153
658,C298,Depois do Bar Borracheiro,,32.691734517631076,-16.86750243627115
846,S241,Cabeço Alto-ACH Marques,,32.80587825106513,-16.908138937884516
852,S242,Depois ESCL Primária,,32.76625920074121,-16.85831041779692
856,S243,Cemitério Achada Marques,,32.80714322342171,-16.908674836880635
858,S248,Depois Achada do Folhadal,,32.7625003349074,-16.862565316455484
2081,102,Depois da Rampa  D,,32.67278202540248,-16.940954569843832
2079,1020,Saída Junto Opel  D,,32.6570472717285,-16.9448432922363
2078,1021,Caminho da Ladeira  S1A,,32.664829606858554,-16.940629499695913
184,1022,R Edmund Betencourt  D1A,,32.66594398595249,-16.94511173121284
1264,1023,Caminho da Ladeira  S2A,,32.665820964332944,-16.942158805754065
1825,1024,R Edmund Betencourt  D2A,,32.666974443513496,-16.945640829007193
1826,1025,Beco da Pinheira  S,,32.66651401265301,-16.943164499324734
1832,1026,R Edmund Betencourt  D3A,,32.66758902979784,-16.944475830414202
1831,1027,R Edmund Betencourt  S1A,,32.667491877701806,-16.944715678784128
212,S455,CAM da Ilha  17A,,32.8109855651855,-16.9033164978027
744,C90,Ribeiro da Achadinha,,32.71803253114932,-16.83275224251032
743,C91,Ribeiro da Achadinha,,32.71807448146902,-16.832648035754733
749,C282,Bar Borracheiro ,,32.69203318497765,-16.866291064343017
758,C291,Igreja do Rochão,,32.6919721045339,-16.85973048592362
657,C299,ENTRONC RIB Serrão  T-112,,32.68834177475421,-16.85240713901001
649,C45,Lapinhas-Eira de Fora,,32.69063226073993,-16.850506287675024
699,S551,ESTR do Farrobo  1A,,32.82884628557897,-16.905558105551346
708,S56,Arco Pequeno,,32.82149570068211,-16.945584105937566
877,S383,CAM da Silveira  5A,,32.803834983950864,-16.892764677602482
904,S335,Depois Capela STO António,,32.80679494645026,-16.872020996330935
1333,1043,Caminho Antigo Galeão,,32.67440358950728,-16.925591041551197
153,599A,Portada STO António  S2A,,32.67101702371098,-16.905800168586598
381,637,CAM da Terça  S,,32.67351334269802,-16.92084729310445
369,C253,Antes LEV Serra-Gaula,,32.69311334400808,-16.8345706719152
2424,745,Depois CZ DR Barreto,,32.656316828662334,-16.936307877243564
2400,758,CZ Laranjal  D,,32.67542758607674,-16.94194382282282
2413,763,Madeira Shopping  S,,32.660505368773364,-16.95040497712958
2314,774,Saída CAM Nazaré,,32.64258955497397,-16.9270759244145
2265,784B,Escola Ajuda  D,,32.63884203434602,-16.94203270374466
2267,787,ESCL Gonçalves Zarco,,32.64732285273212,-16.928986432115853
1048,788,Central Barreiros  D,,32.645868139640456,-16.92959622023422
1634,736A,Rua DR Barreto  D1A,,32.65424671518705,-16.936188537767315
1646,688,Levada Cavalo  D,,32.655770929553434,-16.925484853728104
1483,461,Antes Rampa Santana,,32.66508182226555,-16.90595732815366
662,C300,Apartamentos da Azenha,,32.65294005993469,-16.849094169551044
666,C311,CAM Ribeiro do Louro  2A,,32.68701602473121,-16.823229724001667
850,S237,Santuário Achada Marques,,32.79724294037115,-16.905077767889264
608,S174,Antes da Diferença,,32.78361365322137,-16.858335288031444
1094,542B,CAM Lombos  D,,32.679694786775784,-16.90652551778792
1124,CF64,Pico Furão  4A,,32.743333708449406,-16.965074859137218
437,390C,CAM São João Latrão  D4A,,32.66523832222468,-16.879592715170148
1228,C204,Fonte dos Almocreves,,32.69002714450139,-16.82276805486817
1540,122,Antes CAM Água de Mel,,32.67198973200055,-16.92620029649041
408,462,Final Rua L STA Luzia,,32.66044918638135,-16.902610801107517
242,468,Beco do Pão Duro  D,,32.660463754495396,-16.9073526423993
591,878H,CAM Três Paus  Levada  D,,32.66983290889261,-16.950773113289184
587,833A,CAM Poço Barral  S1A,,32.655891418457,-16.9514427185059
720,CF15,ESCL Curral das Freiras,,32.72244766972423,-16.96540551455692
778,CF29,Antes Levada do Curral,,32.71743466319678,-16.966839754880585
645,C41,RIB Porto Novo-Eira Fora,,32.69177988443436,-16.85265422606718
100,CF49,Antes ESCL Seara Velha,,32.710329260711944,-16.97325091182472
433,391,Igreja Boa Nova  S,,32.657453388754526,-16.8888839592364
968,674A,Junta Freguesia STO António,,32.6643319848041,-16.939483686486767
939,678B,Rua QTA Leme  D2A,,32.6594657897949,-16.9364852905273
950,686,RTP,,32.65732745879972,-16.927681018985503
304,905,Depois da Vereda  S,,32.6795806884766,-16.9504299163818
2282,1259,Caminho da Quinta  S6A,,32.662338636765554,-16.9261645899606
1746,555,Monte  Antes Miradouro  S,,32.66926837172183,-16.911398442185902
1686,569,Largo Fonte  T-21 e 48,,32.676502762901904,-16.903575773779323
1685,57,Madeira Palácio  S,,32.638703874069705,-16.94638425066651
1683,867,Antes da Vitória,,32.64418751573433,-16.963712381244665
1688,868,R Caridade Pestana  D2A,,32.65693202218955,-16.87428821621835
1689,869,Victória  S,,32.64453801311573,-16.965155693226542
1690,87,APS Virtudes  S,,32.6506020403594,-16.93268858103899
1691,870,R Caridade Pestana  D3A,,32.656384048923044,-16.875689032769614
1697,871,Ponta Laranjeira  T-01,,32.646888050773946,-16.965860744813366
1696,871A,Cimentos Madeira  S,,32.64642223526602,-16.96665467443982
1698,871B,Depois Ribeira  Pizo,,32.646893411895476,-16.969455200229383
1695,871C,Pizo  T-3,,32.654615458178434,-16.964804697553312
765,CF30A,R ENG Ornelas Camacho  2A,,32.72070368996834,-16.964118348693148
908,S345,Pão Caseiro-Santo António,,32.799303670949755,-16.871605685800468
862,S351,CAM Feiteira de Cima  2A,,32.790793560861765,-16.87285754631943
821,S295,Lombo de Cima  5A,,32.77344876249986,-16.86083845967218
804,S231,Descida Cemitério Arco,,32.824162850465434,-16.958242550545858
854,S254,Degolada-Cruzinhas,,32.78562712197949,-16.851803295471097
841,S260,Lombo de Baixo  3A,,32.7784502274402,-16.854596657744953
2329,709G,CAM Tres Paus  S3A,,32.66986307358957,-16.954792813428455
769,CF19M,CAM da Fajã Escura  4A,,32.73412377351943,-16.970173543415328
753,CF32,Bica-Curral das Freiras,,32.72161431688031,-16.966020017745727
671,C309,CAM Ribeiro do Louro  1A,,32.68265538899925,-16.82694636772127
796,S225,Igreja do Arco São Jorge,,32.826668593236896,-16.95614044037548
801,S227,ESCL Primária do Arco,,32.825152456910594,-16.956139636872322
22,S153,Farmácia de São Jorge,,32.826330630843394,-16.90773505479478
161,C11,Vale Paraíso,,32.672796177362244,-16.861921180936598
159,C112,Antes da Azenha,,32.6564331054688,-16.8418483734131
615,S171,ESTR do Farrobo  5A,,32.82832462981996,-16.911489833456297
158,S19,Cedro Gordo-Ribeiro,,32.750535238637944,-16.874195111466598
386,633,Junta Freguesia São Roque  S,,32.67103479481438,-16.92199898990001
379,634,Caminho da Achada,,32.65856119443681,-16.92265999919464
382,639,CAM Terça  Poços CMF  S,,32.675383180722584,-16.920431310055918
383,64,CAM S Martinho-Vargem  D,,32.649875514947865,-16.939881826696613
1129,S106,ESTR do Jogo da Bola  1A,,32.82572040437504,-16.910176084412115
1166,CF35,Bar Ressaca Velha,,32.71572579739151,-16.96881758591901
938,678C,Rua QTA Leme  D3A,,32.656918275519324,-16.935152287535868
2304,69,CAM Amparo  Conservas  S,,32.64720919291715,-16.94229285538557
2325,695,Quinta do Leme  S,,32.66242364191229,-16.93555312465773
2349,70,CAM Esmeraldo  Levada,,32.654300296703006,-16.941505018724122
2361,706,Igreja dos Álamos  S,,32.6656917354731,-16.93192964465809
213,S457,CAM da Ilha  18A,,32.81151160930433,-16.902141891838216
224,305,Rua Bela S Tiago  S3A,,32.648243668978374,-16.897986188325515
248,227,Cancela-Zona 35,,32.64722334545589,-16.861148030800624
246,237,ESTR Camacha  Poço CMF  S,,32.65096058079088,-16.87782441808999
407,1064,Depois Madeira Shopping,,32.66145727013726,-16.951225648907247
590,825A,Rua África do Sul  S,,32.64530797339551,-16.935270722422338
789,S220,Moinhos-S Roque Faial,,32.77848334340411,-16.846829035248525
788,S221,Depois Centro Saúde Arco,,32.82602356774392,-16.952604638698602
845,S239,Sítio da Achada Marques,,32.7980078094977,-16.908457606031362
853,S244,Antes Achada do Folhadal,,32.7646751403809,-16.8608379364014
595,C124,Volta Cónego Jorge,,32.65835344695952,-16.838492767005054
618,S161,ESTR do Farrobo  3A,,32.8308677850335,-16.908210490910786
131,614,ESCL Francisco Franco  D,,32.65260763632495,-16.90458667416296
398,62,Tourigalo  S Martinho  D,,32.649455796743375,-16.936202213321952
1067,631B,Lombo Aguiares  T-90,,32.682201385498,-16.9382991790771
392,632,Depois Tecnopolo  D,,32.65969283705178,-16.924006809667834
377,635A,Entrada TV Terça  S,,32.67224831105349,-16.920931655850975
384,535,ESCL B Perestrelo  S,,32.660353468036654,-16.91510794670276
1147,S107,PSP-Santana,,32.807477904753746,-16.88107994932694
1161,S129,Fajã Alta-RIB S Jorge,,32.820697875603045,-16.900463155594846
1024,386,Tea House  CAM Pretos  D,,32.665214780491326,-16.87416273709303
429,841,Rua STA Rita  S1A,,32.65373122648047,-16.95605326721189
414,845,Ponte do Baptista  S,,32.6506309509277,-16.945650100708
422,854,APS Caracas  D,,32.6399612426758,-16.947940826416
421,855,APS Caracas  S,,32.640388458855405,-16.948103489792427
958,861,Aripan  Areeiro  S,,32.64459504119988,-16.957238411897375
268,C13,Entrada para Carreiras,,32.672009855206824,-16.860312953347066
322,89,Avista Navios  S,,32.64981029974424,-16.93468711805014
326,892,Papagaio Verde  T-24,,32.64782920130755,-16.95745210013616
344,C266,Estrada do Ribeiro Serrão,,32.69420535685361,-16.854861235529473
1209,C164A,Saída CAM da Ribeirinha,,32.66792814786823,-16.836593579627863
1236,C161,Depois REST Casa da Avó,,32.67957933112816,-16.85360282943696
2277,362,ENT para Rua Boa Nova,,32.66044632531965,-16.88219275495729
1055,879,TV Campo Marítimo  S,,32.67008431995151,-16.936734815586917
2376,832,Lombada  S,,32.6519799776022,-16.963043484696577
1869,1291,EDF Praças Madalenas  S,,32.65972476552277,-16.93072554575189
1518,150,Rua 5 Outubro Depois do Torreão  D,,32.652341068747,-16.91007579580799
1510,174A,Depois Igreja S Gonçalo  D,,32.65121518212799,-16.88327103742359
1336,256,Rua Coronel Cunha  D,,32.652397902775796,-16.898511053033815
1359,26,Duas Torres,,32.63542551631332,-16.942112790355797
2055,209,ESTR C Carvalhal  RIB  S,,32.65230461601736,-16.88343041490618
218,S47,Igreja de São Roque Faial,,32.770706359233984,-16.85659559771943
249,175,Antes Rampa D Manuel,,32.6564674377441,-16.9168148040771
227,S38,Centro Saúde Arco S Jorge,,32.82538578689076,-16.950742392071255
717,CF12,Terra Chã-Ponte,,32.71377800489952,-16.970839310037785
774,CF19J,Fajã Escura-Final,,32.73176889335832,-16.970760887904177
766,CF3,Furna-Ribeira da Lapa,,32.69917070880507,-16.953058787224414
707,S557,Fajã da Murta  1A,,32.76718320181854,-16.875766523512898
685,S73,Faial-Supermercado,,32.791255580383506,-16.854646159392704
882,S80,Reta da Achada Grande,,32.82648660369948,-16.912853302364155
871,S382,Cemítério-Zona 25,,32.69256163785765,-16.774351823440675
203,S305,Lombo de Baixo  4A,,32.783926014092685,-16.851394557000688
779,C7,Depois da Madre Água,,32.670798526368024,-16.865217584389114
756,C285,Ponte Pau-Ribeiro Serrão,,32.6955346675841,-16.862281234442612
660,C296,Vereda Ladeira-RIB Serrão,,32.693251716096185,-16.85201199307922
702,S57,Antes Escola dos Moinhos,,32.77431778880341,-16.850359195227906
201,S3,Terreiro da Luta,,32.68543372950543,-16.90103051445999
897,S309,ENT para Lombo Galego,,32.784351348877,-16.8571186065674
933,S320,ENT para Corujeira Cima,,32.77742021442603,-16.86559970877901
900,S330,Campo Futebol Machico,,32.7284965515137,-16.7763862609863
790,S219,Centro Saúde Arco S Jorge,,32.82547701885091,-16.950784025136286
823,S233,Cemitério Arco São Jorge,,32.825640441431915,-16.957319320810498
66,S40,Arco S Jorge-ER 101  1A,,32.8257014134828,-16.94916465816347
572,C118,Tecnorocha-Pedra Mole,,32.6551971435547,-16.8357372283936
596,S154,Depois do Colmo,,32.80319546652582,-16.881267636966026
613,S173,Achada Grande-São Jorge,,32.82781032921149,-16.91049775275513
611,S184,Faial-Supermercado,,32.79111668613167,-16.854608632104615
106,S194,Antes dos Moinhos,,32.780916166688314,-16.84682685591119
117,S138,CZ para QTA Furão-Santana,,32.82113602319017,-16.8883570755101
807,S36,Antes Centro Saúde Arco,,32.82606939719671,-16.952891468443948
33,S288,Igreja do Cedro Gordo,,32.753485324027004,-16.872315868974056
73,S402,ESTR Farrobo-Fontenário,,32.8311474825801,-16.91119649312962
55,S435,CAM da Ilha  9A,,32.80934640014444,-16.911183127545502
607,S188,Centro Saúde do Faial,,32.79084838051142,-16.85332267312093
125,605,CZ CAM Desterro  Monte  S,,32.66952712504337,-16.902203841524848
145,595,CAM Saltos  Antes Término,,32.67031182430166,-16.915054840797485
389,531,Centro  APS Vermelhos  S,,32.65751719151064,-16.912805226446224
1100,541,Depois Igreja I C M,,32.66200810102193,-16.917048104060903
1014,378A,Estrada Camacha  D2A,,32.66370741259631,-16.87234176177905
1020,389,Boa Nova  ENT R Murteiras,,32.65813443276816,-16.89073112571887
430,399,Boa Nova  ENT TV Pomar,,32.66124207325746,-16.884243407145508
971,673,Viaduto São João  S,,32.64963852673815,-16.918308596492192
970,673A,ESTR São João  S,,32.65031917929923,-16.91884860491293
972,673B,Acima CZ Velez Caroço  S,,32.6535301208496,-16.92041015625
969,673C,ESTR São João  Renault,,32.6555404663086,-16.9216003417969
987,93,CAM S Martinho  14H  S,,32.6498985290527,-16.9392204284668
1744,368,ESTR Boa Nova  BMW  D,,32.66139667277066,-16.876790550817002
1759,551,Monte  Pedreira  S,,32.667232222257574,-16.914332791984183
1753,565,ESTR Marmeleiros  S,,32.6739981098764,-16.90707625845564
1694,874A,Antes Casas,,32.6893463134766,-16.9524364471436
1681,874B,Depois da Estrela,,32.69086109467252,-16.9530896124189
2313,77,Hospital DR Nélio M  S2A,,32.648549272935114,-16.923448299070305
2337,715,Antes Vereda  S,,32.674343507634774,-16.95079605407868
1433,668,ESTR das Courelas  D2A,,32.66522923814182,-16.94514967796737
228,361,CAM Curral Romeiros  S1A,,32.66800509166666,-16.89109787454527
883,S8,Sítio da Achada Marques,,32.7978563434199,-16.908334192495985
889,S91,Eiras-Santana,,32.79445336710416,-16.868898418608318
814,S37,Depois Achada do Folhadal,,32.764624866923825,-16.860813636550894
101,S21,Antes Igreja Cedro Gordo,,32.75211709225457,-16.87224454381604
140,594,Chão Carlinhos,,32.66486142804467,-16.922925474069817
2288,1241,LMB Jamboeiro  CAM Corgo  S,,32.67364367689241,-16.932767431755387
1768,243,ENT R Caridade Pestana,,32.65478017330528,-16.87693658115349
1760,550,CAM Corujeira  D3A,,32.67844200944838,-16.910765811999816
1471,433,ESCL Palheiro Ferreiro  S,,32.664347974876655,-16.8650946385857
1509,1283,Rua Max  S,,32.662612382322294,-16.93242408020105
1013,379,ESTR VISC Cacongo  S,,32.65858830147823,-16.899299554667028
1568,1206,CAM Igreja S Gonçalo  D,,32.64900748394339,-16.882026386372033
1665,1269,ESCL Básica S Gonçalo  S,,32.64912738519268,-16.881073666859088
1742,127,ESTR CMDT C Freitas  S,,32.671216424678,-16.941853103637953
1705,802D,Rua Brasil  D3A,,32.646289112681444,-16.934608394641767
2399,759,ESCL Tanque  STO Amaro,,32.65849418842913,-16.946427103352615
2362,768,Rua DR Pita 1315,,32.6442254156124,-16.92628374727122
1649,729,CAM Azinhaga  D2A,,32.668335013566704,-16.932929046661734
1619,739,CAM Pilar  Depois da BP,,32.6545791625977,-16.9299907684326
1618,74,Depois Pavilhão Trabalhadores,,32.65751814055025,-16.9416894283388
1475,459,Depois CZ CAM Monte,,32.6644515991211,-16.9053115844727
1573,352A,Rua de Santa Isabel  D,,32.656909559777,-16.888163918147917
1572,353,CAM Voltas  Escola  S,,32.66513602143594,-16.894184824951026
1577,355,Curva João Ladrão  S,,32.66512245057239,-16.89267704633925
586,932,Fundoa Cima  D,,32.67161428121312,-16.918899165646877
771,CF19L,CAM da Fajã Escura  3A,,32.7330017089844,-16.9708614349365
1064,S93,CZ para Feiteira Cima,,32.79472153382155,-16.871898858706626
137,59,CAM Amparo  Grande Brasa,,32.63948878882293,-16.945838504708142
146,596,Capela da Conceição,,32.66353517812026,-16.922535023217478
967,673D,Antes Tecnopolo  1A,,32.65827467642871,-16.925130022952146
450,839,Largo dos Alecrins  S,,32.65555248922661,-16.95645895061767
1741,1271,Bairro São Gonçalo  S,,32.64791201856104,-16.880496249884427
1762,246,ESTR VISC Cacongo  ESCL  D,,32.65702830920717,-16.89527504351472
1764,247,Estrada Camacha  S2A,,32.65937084938601,-16.87291629037221
2253,249,Depois Chão Loba,,32.65020065316713,-16.887561149833708
1755,552,Coruj Dentro  Reforço  D,,32.679533773882156,-16.912011873753
1724,790,Redondo Barreiros  D,,32.64364675750649,-16.928905385390188
1730,800,Club Naval  Nazaré  D,,32.64574837369204,-16.93645982502044
222,S441,CAM da Ilha  11A,,32.81037515596483,-16.911699061734645
210,S443,CAM da Ilha  12A,,32.80929530952715,-16.911210208430212
211,S451,CAM da Ilha  15A,,32.807255654813055,-16.906267477682643
219,S461,Ilha-Saída para ER 101,,32.8148803710938,-16.9011878967285
194,S298,RIB Frio-Bar Faísca,,32.739108238247766,-16.887223943688877
202,S301,Lombo de Baixo  2A,,32.778421803381015,-16.854541482898977
199,S302,Poiso,,32.7121620178223,-16.8883533477783
247,232,Caminho Palheiro  D,,32.651890199588145,-16.891705681837472
244,170,Antes Chão Loba  D,,32.651266024151106,-16.887213121369662
1098,540,Largo da Fonte  T-20,,32.67660263751706,-16.903744634216604
439,391A,Depois Igreja-Zona 35,,32.65734054767584,-16.88793102854485
965,672,Depois Posto Médico,,32.663610223747234,-16.941532352964565
956,674,Igreja STO António  D,,32.663723151215734,-16.938950325623196
955,676,TV Igreja STO António  D,,32.663181022041265,-16.936751891476064
982,883,Entrada CAM Cova Til,,32.65321133795767,-16.959079676344224
1105,981A,CAM Barreira  Beco,,32.67665846783333,-16.949918156850686
1091,981E,CAM Barreira  N 180  S,,32.681375182034664,-16.94943869301485
1078,981H,Entrada Trapiche  S,,32.67548609641146,-16.949728945610477
1080,985,ESTR Laranjal  Ribeiro  D,,32.67741422345804,-16.94828931618545
1087,993,CAM Curral Velho  S4A,,32.68069586622279,-16.94302530737033
372,886,Antes Ponte RIBA Grande  D ,,32.66539402812683,-16.93679520678559
323,889,Casas da CMF Quebradas,,32.64940462762285,-16.95569534279515
1560,1201,APS Novos Frente RTP  S,,32.65779786999393,-16.928191851745755
1682,874,Casas  D,,32.6870994567871,-16.9532871246338
2305,689,Madalenas  CTT  S,,32.65874677933019,-16.92949414268115
2306,690,LEV Cavalo  Ferreiras  D,,32.6538762971326,-16.924255374388668
1025,385,Depois Rest Espadarte,,32.65891792604041,-16.89538207670096
445,394A,Antes LEV Tornos-Zona 23,,32.66483038284284,-16.866964261511676
2445,401,ESTR Boa Nova  S2A,,32.66025568608423,-16.882058031524565
1593,334,Rua do Matadouro,,32.65168940106409,-16.9023824274249
1842,342,Antes Ribeira J Gomes  D,,32.65872766664875,-16.899179365504313
1930,502,R Til  APS Vermelhos  D,,32.65756051241007,-16.91291589508164
1924,504,Rua Til  D,,32.65930116679268,-16.913162198978334
2210,1321,AV Santiago Menor  S4A,,32.64826954551712,-16.89279726820245
2041,197,Miradouro Vila Guida  S,,32.64987969528048,-16.895507549398346
1038,91,Tourigalo  S Martinho  S,,32.64962463403486,-16.936253184289335
1044,910,CAM Terra Chã  Beco  D,,32.66512611783488,-16.94019008752955
1043,910A,Antigo C Saúde STO António,,32.66420620287944,-16.939449015181662
1042,912,Fundoa  T-49,,32.6631583133482,-16.920147278080382
1039,914,Junto ao Modelo,,32.660298962691115,-16.919430245999987
485,953,Cemitério STO António  S,,32.66784681904369,-16.940584485990296
1808,1317,AV Santiago Menor  S2A,,32.649065202131,-16.8961880019384
1932,512,Antes Igreja I C M,,32.66196219434807,-16.917121154242725
1931,514,Monte  Penha França  D,,32.66376888785852,-16.9180389722192
1928,516,Antes CZ CAM dos Saltos,,32.6647529602051,-16.9161853790283
5807,1324A,Cº Barreira-Curral Velho S,,32.678656020962045,-16.94297474329885
5808,981N,Cº Barreira-Cº Trapiche S,,32.67805062040767,-16.946503363672893
5804,49A,Hotel Alto Lido,,32.63799432260567,-16.936622115677373
5805,981M,Caminho da Barreira-Cº Trapiche D,,32.67823224057399,-16.94652498512127
5806,981P,Laranjal Pequeno,,32.67741494982559,-16.940103414955267
