stop_id,stop_code,stop_name,stop_desc,stop_lat,stop_lon
5802,533B,Rua Bartolomeu Perestrelo,,32.65930033439218,-16.915387551935286
385,534,Monte  Tanque  D,,32.67326542862007,-16.911176884548023
5692,1348,Junto Beco Calçada  D,,32.64656970951532,-16.969703510269213
1497,168,Chão da Loba  D,,32.64993894094073,-16.888919948178604
1495,17,Rua Conselheiro,,32.64678827465142,-16.91178380162033
5688,1338,Pestana Promenade,,32.63702857477412,-16.937519980010222
5689,1340,Porto Bay,,32.63800317674449,-16.932957854837117
5763,138A,Escola Achada,,32.659072350948705,-16.921900635194437
5799,188A,CAM do Pináculo,,32.64540315935134,-16.865168127644193
5800,1077A,STA Quitéria  T-8,,32.663082892377886,-16.95501022496756
29,S281,Antes da Fajã Nogueira,,32.75383047206573,-16.877602835479102
28,S282,CAM da Fajã Cedro Gordo,,32.75413442712263,-16.876182357447888
5803,45A,Monumental Lido,,32.63826292862756,-16.931313764432495
652,C44,Lapinhas-Eira de Fora,,32.69063942287102,-16.850314600517738
896,S308,Terreiro da Luta,,32.68552056000921,-16.900947595066473
919,S315,ENT para Corujeira Cima,,32.777489260711114,-16.865387636981552
910,S343,Santo António-Fonte,,32.801680441860206,-16.87098506559853
851,S353,CAM Feiteira de Cima  3A,,32.788150448116646,-16.874282921506666
810,S355,Feiteira de Cima-Final,,32.78493885829515,-16.87700321880389
809,S357,CAM Feiteira de Cima  4A,,32.78816199387538,-16.8741193555908
808,S359,CAM Feiteira de Cima  5A,,32.790849430271585,-16.87279829432357
805,S377,CAM da Silveira  2A,,32.8021278381348,-16.8883018493652
844,S240,ESCL Primária São R Faial,,32.76751703620732,-16.85750195989351
829,S262,Lombo de Baixo  4A,,32.77710026873512,-16.85629924349007
833,S27,CZ do Cabouco,,32.7571205342309,-16.868210004053186
5690,1397,Junto Serragem  S,,32.64897839142427,-16.967083388829106
81,S279,CAM da Fajã Cedro Gordo,,32.75410576804241,-16.87628491980756
26,S284,CZ do Cabouco,,32.75712115549349,-16.86831338995508
40,S213,Arco S Jorge-ER 101  5A,,32.827618041345254,-16.94305906879941
39,S215,Arco S Jorge-ER 101  6A,,32.82491538305229,-16.947357636787007
41,S290,Depois Igreja Cedro Gordo,,32.75211672588989,-16.872330289120065
36,S292,Cedro Gordo-Ribeiro,,32.75053994944122,-16.874264227561742
25,S294,Achada do Cedro Gordo,,32.749116150032215,-16.87322023462509
5691,1346,Frente Serragem  D,,32.64896556053957,-16.96720137060433
6,C107,Antes CZ Figueirinhas,,32.64969858225632,-16.85232539353863
570,C108,Depois CZ Figueirinhas,,32.64915651456711,-16.85313869907919
165,C115,Caniço Shopping,,32.65337828095853,-16.841618562291263
166,C116,Cruz-Pedra Mole,,32.65458823983838,-16.835756746657385
574,C119,Bomba Gasolina,,32.65563957218271,-16.838148986532044
143,592,CAM São Roque  Moinho,,32.66636906173756,-16.922673187862426
155,6,Palácio S Lourenço,,32.6468200683594,-16.9101104736328
152,60,Avista Navios  D,,32.64966633243582,-16.93470935748019
150,600,CAM Terça  Antigo Término  D,,32.67660835602112,-16.920457461284606
149,601,Sanatório João Almada  S,,32.66916916794756,-16.905207169048655
139,602,CAM Terça  Poços CMF  D,,32.67541234488142,-16.9204952603492
132,604A,Entrada TV Terça  D,,32.672121752033526,-16.921056926655993
129,61,APS América  S,,32.6408157348633,-16.9447956085205
136,612,CAM Água Mel  D3A,,32.66646934908394,-16.92738471880348
133,613,CAM Lombada  Serragem  S,,32.67253772393025,-16.899181051664787
130,615,Babosas  T-22,,32.67620997882115,-16.899190733547425
397,620,Largo Álamos  Saída,,32.6650891422154,-16.93153698184691
400,624,Atrás APS Penteada  D,,32.6646881103516,-16.9292392730713
375,586,Lombo Segundo  T-17,,32.668480018165056,-16.923125112950796
380,587,Pedreira  S,,32.6676231544551,-16.91628639161601
934,617,CAM S Roque  Muro Coelha,,32.66038859932631,-16.922583876073272
1073,538,Monte  QTA Monte,,32.6756477355957,-16.9051399230957
1103,545,CZ CAM dos Saltos,,32.66377169019408,-16.916704075900704
1108,547,Monte  Pinheirinho  S,,32.66622234801916,-16.916370703397746
1107,CF50,CAM Lombo Chão  1A,,32.70649501988134,-16.975524114946342
1137,CF51,ESCL da Seara Velha,,32.7091445922852,-16.9731407165527
1138,CF52,CAM Lombo Chão  2A,,32.70762751983676,-16.97518070765266
1142,CF6,CAM Seara Velha  2A,,32.71224611537741,-16.972656538102655
1141,CF60,Pico Furão  1A,,32.73886906704874,-16.968286031345137
1117,CF66,Pico Furão  6A,,32.73929906292145,-16.968460959842695
1119,CF8,CAM Seara Velha  3A,,32.71299720335325,-16.97168550590315
1120,CF9,Entrada Eira Serrado,,32.707748681093065,-16.959659719356956
1170,S113,Caminho Chão-Santana,,32.8147430419922,-16.8870067596436
1171,S115,Pico Tanoeiro-Santana,,32.8183892265239,-16.887283491990466
1181,S118,ESTR do Jogo da Bola  5A,,32.82278172314626,-16.90479674224526
1184,S120,ESTR do Jogo da Bola  6A,,32.82423388353151,-16.904139314373975
1183,S121,Achadas da Cruz-Santana,,32.820507930672875,-16.89072276524142
1185,S122,ESTR do Jogo da Bola  7A,,32.82510440364998,-16.903784180508296
1182,S124,São Jorge-Bomba Gasolina,,32.826432801065565,-16.90358204102767
1179,S126,São Jorge-Jardins,,32.825308807211655,-16.9010746526925
1168,S128,Fajã Alta-RIB S Jorge,,32.82083875228426,-16.900504874936253
1154,S13,RIB Frio-Bar Faísca,,32.738767479292605,-16.887113174834063
1151,S133,São Jorge-Bomba Gasolina,,32.82662780709651,-16.90372438254606
1150,S135,ESTR do Jogo da Bola  1A,,32.82515518332244,-16.903853402468393
1155,S136,Achadas da Cruz-Santana,,32.82046747308001,-16.890591632882362
1015,378,Estrada Camacha  D1A,,32.66476776987267,-16.87232879011292
1017,382,CAM dos Pretos  D2A,,32.665308932549856,-16.871574378754527
301,C80,João Frino-Cabeço,,32.706499747184715,-16.830208574192646
1276,C81,João Frino-Depois Cabeço,,32.70662403315033,-16.83021984555807
1034,C82,João Frino-Estufa Flores,,32.7084996219202,-16.83192846095841
1033,C83,João Frino-Estufa Flores,,32.70868427103689,-16.83195777185226
1032,C84,Depois Quatro Estradas,,32.71105310587363,-16.831337290994206
1011,380,Saída CAM Pretos,,32.66401047455365,-16.871685359393734
1016,381,Antes Bom Sucesso  S,,32.65827774076672,-16.897766241107558
1018,383,Bom Sucesso,,32.657835139173976,-16.897052398651915
1019,384,CAM dos Pretos  D1A,,32.665906045224226,-16.87267460457701
1023,387A,Depois Cabeço de Ferro,,32.65819321205491,-16.89224618384964
411,390,CAM São João Latrão  D7A,,32.66727498680957,-16.879619107375287
953,685,Levada Cavalo  S,,32.6559544160791,-16.92549322937971
948,687,APS 4 Madalenas,,32.657016914413674,-16.927086192401873
993,684,Madalenas  Depois CTT  D,,32.65831087921427,-16.929061239876255
534,C28,CAM Ribeiro do Louro  2A,,32.68678662691018,-16.823394573322986
298,C232,ESTR Gaula-As Levadas,,32.66960275551667,-16.816743528336882
264,C133,Campo do Canicense,,32.66040245042561,-16.83603880697449
269,C134,Gaulês-Zona 35,,32.66707026068016,-16.83646147342491
271,C136,Antes do Gaulês,,32.668490493135586,-16.83867146311348
472,C148,ESCL Primária Camacha,,32.6747701652518,-16.852132313288944
462,C16,Depois Saída Carreiras,,32.67243777861049,-16.861024840807435
521,96,Depois Jamboto,,32.67079141125175,-16.94486901432663
488,969,Fundoa  T-49,,32.66373794124895,-16.919927008350726
317,C237,Igreja de Gaula,,32.67717992375605,-16.825097756204823
314,C238,Antes Fonte Tabaiba,,32.67247639599389,-16.81331020489389
312,C239,Depois da Igreja de Gaula,,32.678383348909854,-16.82571840163695
311,C24,Variante Nova-Shopping,,32.67438178672378,-16.852184774381367
1241,C209,ESTR Gaula,,32.67550187706971,-16.80739790260869
640,C36,Ponte do Rochão ,,32.68702237635864,-16.852662713902554
639,C37,Ponte do Rochão ,,32.68669567272032,-16.852579400725237
1273,C270,RIB Serrão-Fonte,,32.69247629162779,-16.84733226676563
1674,878I,CAM Três Paus  Oficina  D,,32.66923041277066,-16.950191725785544
1711,810,Rua STA Rita  D2A,,32.65381799384357,-16.95592000500845
2386,816,CAM Poço Barral  D1A,,32.6562423706055,-16.95285987854
2385,816A,CAM Poço Barral  D2A,,32.65588230884365,-16.951637624245567
2384,817,Hotel Panorâmico  S,,32.64276700672931,-16.93205114897241
2383,817A,Frente ao RG3  T-48,,32.64343866534204,-16.934159221783514
1050,819B,O Meu Apartamento  Nazaré,,32.64639506838998,-16.93454929788592
2394,819C,Rua Brasil  S2A,,32.6472854614258,-16.9359321594238
2395,819D,Travessa Venezuela,,32.6483535766602,-16.9367351531982
2391,820,Armazém Pingo Doce  D,,32.65616174738568,-16.947701388101652
2382,821,Correios da Nazaré,,32.64433161587512,-16.93372560575669
1051,822,Papagaio Verde,,32.647673399081434,-16.95267026603399
2375,823,Rua E U A  Tourigalo,,32.64898540721656,-16.9370361021933
2368,823A,Antes Estação Repsol Nazaré,,32.6474685668945,-16.9376945495605
2367,824,CAM S Martinho  PTE Cota 200,,32.64834032066856,-16.950540631214537
1052,825,Club Naval  Nazaré  S,,32.64542451747337,-16.936259079517637
2366,825B,Junto PSP  Nazaré,,32.645561430571675,-16.934298801162754
2365,826,Albatroz  D,,32.64928143351707,-16.94885815102483
2370,828,CAM São Martinho,,32.65029543721432,-16.94779917654061
2433,750B,CAM Trapiche  D2A,,32.68266958224305,-16.94707675168955
2432,750C,CAM Trapiche  D3A,,32.68141003513899,-16.946795721236743
2431,750E,CAM Trapiche  Entronca  D,,32.6857986450195,-16.9481239318848
2429,750F,CAM Trapiche  Ant Ter  D,,32.68567152180303,-16.947239159218213
436,390A,CAM São João Latrão  D6A,,32.6671333312988,-16.8806476593018
441,397,Transval  S,,32.659350099742134,-16.885986774335546
428,841A,Rua STA Rita  S2A,,32.651315783027556,-16.9566078615493
423,842,Fábrica Blocos  D,,32.64497093465401,-16.961953233538964
416,843,CZ Quebradas  S,,32.64997976774885,-16.957270790367183
413,846,Aripan  Areeiro  D,,32.6443824768066,-16.9575634002686
412,847,Depois Ponte Batista,,32.6505088806152,-16.9476509094238
417,848,Areeiro  D,,32.6440849304199,-16.9554634094238
420,850,Areeiro  Abrigo,,32.6434745788574,-16.9533195495605
426,850A,Praia Formosa  D,,32.64269773862718,-16.95046403082972
425,851,Depois Ponte Via Rapida,,32.6482391357422,-16.9509601593018
427,852,Ilma  D,,32.6411209106445,-16.9492893218994
424,853,Papagaio Verde,,32.64785415554463,-16.952962345826887
1010,857,Ilma  S,,32.6414782404886,-16.949543806844122
1009,857A,Praia Formosa  S,,32.6427097071195,-16.950348816085505
1008,857B,APS dos CTT  S,,32.643003309440374,-16.95099901620468
2428,750O,CAM Trapiche  D5A,,32.6786613464355,-16.9464149475098
2417,751,Poço Barral  QTA Esmeraldo,,32.655881658631706,-16.941304878284235
2405,760,Capela do Laranjal  D,,32.674303217702494,-16.94040543330281
2412,764,Rua DR Pita  Coohfal,,32.64725391506688,-16.930698614446307
2414,764A,Barreiros  D,,32.64714452495125,-16.929046579329153
2411,765,Estevão Neves  S,,32.661884736873226,-16.95191976624195
2409,767,Fundoa Cima  S1A,,32.670740358976566,-16.920451722849265
2364,767B,Jardins de STA Luzia,,32.65352992835172,-16.91193056363672
2363,767C,Rotunda  Fundoa Cima  S,,32.67440509321187,-16.917348058433753
2324,769,Bairro Pico Romeiras  S,,32.664358906459256,-16.948699924391367
2354,704A,CAM Azinhaga  S3A,,32.666991482115186,-16.932044145728216
2356,708,CAM Álamos  Dep LG Álamos,,32.665155403631125,-16.932456378283952
2345,709A,CAM Três Paus  Oficina  S,,32.66928674379433,-16.950306458403052
2332,709J,Três Paus  T-92,,32.67367375205113,-16.95437886073984
973,858,Curva Ribeiro  Lombada,,32.652273671138474,-16.96209229603108
960,86,Depois CZ Courelas  D,,32.665626892977336,-16.948647322712578
947,588,Caminho Igreja  S Roque,,32.66854326943448,-16.921778872439035
954,589,CZ CAM Saltos  S,,32.667071876505666,-16.917661826710795
996,740,CAM Pilar  Bar Janota  D,,32.654756157389926,-16.931840346391493
1000,918,Rampa Santana  D,,32.665469941927164,-16.90599569730191
1006,920,ESTR Laranjal  Ribeiro  S,,32.677307031542654,-16.94839628985157
1005,921,Centro C Bom Jesus,,32.65145043076828,-16.90858853158095
989,930,CAM Virtudes  APS Barreiros,,32.649846333449915,-16.927743428965186
449,838,Victória  D,,32.6448211669922,-16.9652404785156
545,840,Depois da Victória,,32.6441388737032,-16.963563670549583
540,C279,RIB Serrão-Escadas,,32.69346083728121,-16.85023852157617
2344,709C,CAM Três Paus  Ponte  S,,32.670502921087646,-16.951341596415837
2338,709D,CAM Três Paus  S1A,,32.67039891591964,-16.952774646674573
2331,709E,CAM Três Paus  S2A,,32.669322260141556,-16.954159318679483
2330,709F,CAM Três Paus  Viana  S,,32.669158034682525,-16.955449752576097
2328,709H,CAM Três Paus  S4A,,32.67136679086642,-16.954448859556738
2333,71,Vereda da Vargem  S,,32.649173321556795,-16.941502045665107
5767,1350,Rua Comboio  57,,32.658345988044935,-16.909065233753726
5768,1352,Rua Comboio  29,,32.65674598857347,-16.909465686068025
5769,1354,Rua Comboio  9,,32.65432412515254,-16.909541846034745
1274,C60,Antes das Águas Mansas,,32.695765391112765,-16.83821723798873
527,C61,Depois das Águas Mansas,,32.69579753495761,-16.83816068649195
529,C67,Descida para Curral Velho,,32.7027564157002,-16.84001900394988
538,C217,Depois Fonte Tabaiba,,32.67256187583149,-16.81331362909529
535,C218,ESTR Gaula-Escola,,32.67444082856701,-16.82398273914159
263,C222,ESTR Gaula  1A,,32.67601577323474,-16.820917024568008
293,C125,Barreiros-Pedra Mole,,32.65661338427167,-16.83699234978834
282,C126,Vista da Igreja,,32.65850248496355,-16.836455585932164
280,C128,Campo do Canicense,,32.66031151725188,-16.83606659116061
275,C129,Volta Cónego Jorge,,32.65837732521598,-16.838415548979906
454,936,CZ CAM STO Amaro  D,,32.659168020429085,-16.944554784235724
453,938,Rua DR Gastão Figueira,,32.65923555758246,-16.946196969407048
451,94,Antes Ladeira,,32.669390987223814,-16.94662499307182
456,940,Saída R Caridade Pestana,,32.654876496360814,-16.877028224599176
458,942,Rua Lazareto  Socateiro  D,,32.64745656949298,-16.89445382696671
459,943,Rua DR Gastão Figueira,,32.65932597463879,-16.94637097222184
465,948,CAM Curral Velho  D3A,,32.67918442734574,-16.943155635148063
461,949A,CAM Terra Chã  ESCL  S,,32.66612175077682,-16.940499564692416
460,95,São Martinho  S,,32.6501693725586,-16.9423408508301
483,951,CAM Terra Chã  S,,32.66711594821696,-16.94096943174436
509,953B,CAM Cemitério  QTA Leonor  S,,32.66607900980292,-16.938667074303602
2334,710,CAM Álamos  Beco Álamos,,32.66551138338915,-16.93417656482907
2341,710B,Álamos  T-14,,32.66747603907544,-16.936112449882295
495,645A,Água Mel  ESCL Galeão  S,,32.669958461120736,-16.926759024828783
186,646,Auxilio Maternal,,32.65143694006146,-16.91733704695468
300,647,CAM Água Mel  S4A,,32.6713200208683,-16.926008620499275
267,C130,Cemitério do Caniço,,32.662632540013185,-16.836811882426076
266,C131,Vista da Igreja,,32.65845469055018,-16.8363914946386
270,C135,Cemitério do Caniço,,32.662261548216605,-16.836376590763297
508,954,CAM Lombo Aguiares  S3A,,32.68084332737469,-16.938935198218086
373,885,Igreja de STA Rita,,32.650493613023315,-16.959033067256712
336,886A,Viaduto Quebradas,,32.64941897195048,-16.957637639002833
325,887,Antes Igreja STA Rita,,32.64999304311038,-16.957638561599605
321,890,CAM Areeiro  ESCL  S,,32.64767671844435,-16.954820929263807
328,896,Capela STA Rita  D,,32.64590266579144,-16.958973734485895
402,897,CAM Areeiro  Bela Vista  S,,32.64702968173398,-16.95912290715042
333,899,Capela STA Rita  S,,32.646169785052095,-16.9590848699755
335,89A,Rua DR Barreto O Ninho  S,,32.65067598307227,-16.934990586027602
332,89B,Rua DR Barreto  S1A,,32.652331028974764,-16.93467697374511
330,89C,Rua DR Barreto  S2A,,32.65419638812091,-16.93598897682448
329,9,R 31 Janeiro  S,,32.647928896839616,-16.905393564203994
319,901,CAM Areeiro  Antes Capela,,32.64546017305506,-16.95807643566071
185,648,Rua DR Caroço  BC Frias  D,,32.651392431385375,-16.918653013927376
1442,65,Capela do Amparo  S,,32.644516981162724,-16.943198959581277
563,650A,Entrada S João,,32.651103577697526,-16.9192737330167
1443,650D,Depois Tecnopolo,,32.65768227156384,-16.92479881825634
1445,651,Tecnopolo  S,,32.660268781985245,-16.925586171864197
1452,654A,Praia Formosa  T-43,,32.64280528827382,-16.951176375628282
1432,65A,CAM ENG Velho  Madibel  D,,32.64520863259273,-16.94125846512484
1425,66,São Martinho  D,,32.650015770834315,-16.941695503227262
1424,660,Antes do Boliqueime,,32.6726275340971,-16.950178944423744
1423,661,Largo Álamos  Entrada,,32.66507187300052,-16.93148173986662
1422,662,Courelas  Boliqueime,,32.671021860162504,-16.949746892903494
1426,662A,Saída CAM Três Paus,,32.669116973877,-16.9501152038574
1427,663,CAM Santana,,32.666917095173986,-16.930692560191694
306,903,Caminho do Areeiro  S,,32.645010773119694,-16.955189905558232
303,906,Cemitério STO António  D,,32.667832199043715,-16.940682176873043
307,906D,Rua Campo do Marítimo  S,,32.66648519773539,-16.93741186946985
309,908,CAM Terra Chã  D,,32.66687319640556,-16.940998393080875
310,908A,CAM Terra Chã  ESCL  D,,32.66614385311587,-16.940648367410414
1428,664,Antes CZ das Courelas,,32.6681213378906,-16.9500122070313
1429,665,Álamos  T-15,,32.66885779655441,-16.92999287553144
566,666,CZ das Courelas  D,,32.66656812858575,-16.949139082629177
1434,666A,ESTR das Courelas  D1A,,32.66582064760107,-16.94622593415074
1430,66A,Vereda da Vargem  D,,32.64953245109969,-16.941449895158595
1436,67,CAM Amparo  Vila Rosa  S,,32.645218985414104,-16.942329332652836
1453,670,Antes Posto Médico,,32.66384836584091,-16.943461981100494
1490,465,Seta  S,,32.66677756410507,-16.909128511299024
1489,466,Depois CZ CAM Monte C26  D,,32.65922626886638,-16.905116487706135
1488,417,Entrada CAM Pretos,,32.66388518386321,-16.871625885571532
1486,469,Escola Piedade  S,,32.66654600634023,-16.91261553780301
1458,375,R Pestana J Mercedes  S,,32.6578903198242,-16.9000263214111
1370,440,R Silvestre Q Freitas  D1A,,32.65684848248031,-16.902604476448523
1371,444A,Antes CZ CAM Comboio  D,,32.65863991072003,-16.90925832376165
1373,444C,Rua DR Ângelo A Silva  D,,32.65944339386368,-16.912516523503932
1502,173,Viveiros  S,,32.658121295600424,-16.91850791587113
5686,598A,CZ Rua Cónego Andrade,,32.66307797489149,-16.923488573796305
1366,271,Depois Escola Faial,,32.65417718123264,-16.89159818944702
1340,282,Cota 40  Cruz Vermelha  S,,32.65168949065428,-16.911889680385073
943,682,APS Basilios  D,,32.660542941605435,-16.931776258265746
952,682A,Madalenas  CTT  D,,32.659257669783734,-16.930271240701337
353,C242,Associação R de Gaula,,32.67307897298815,-16.810248847559787
338,C243,ENT para CAM da Faia,,32.6819343566895,-16.8273124694824
360,C244,ESTR Gaula-Furtados,,32.673990680439616,-16.80730625539564
359,C245,CAM Ribeiro do Louro  3A,,32.688768861974246,-16.82205142213617
358,C246,ESTR Gaula  3A,,32.67540506755409,-16.807281220999304
356,C248,Saída da ESTR de Gaula,,32.67593819898184,-16.804767175242816
361,C249,Antes Achada Barro,,32.72103767992728,-16.83273429898709
362,C25,ESCL SEC da Camacha,,32.678234330159306,-16.85007094537983
367,C259,Entrada para Ribeirinha,,32.66785581534307,-16.83647861236364
354,C26,Variante Nova Camacha,,32.67585081716068,-16.849313238068596
352,C272,RIB Serrão-Depois Fonte,,32.69151949993954,-16.8460613417322
348,C273,Ribeiro Serrão-Término,,32.69004454374624,-16.845510171556146
1101,C275,RIB Serrão-Antes da Fonte,,32.69171211411753,-16.84626342064536
1111,C276,Depois da Ponte Pau,,32.6945851511205,-16.857699327338953
1112,C277,RIB Serrão-Fonte,,32.6926470639716,-16.847394195244327
1376,452,Rua Comboio  Escola  D,,32.658848810359196,-16.90888321451838
1281,1277,CAM Novo do Galeão  D2A,,32.6754608154297,-16.9289226531982
2442,1192,Caminho da Quinta  D2A,,32.66219964374269,-16.926786890981912
2441,1279,CZ CAM Pilar DR Barreto,,32.65634265099896,-16.935059320931465
1417,312,Jardim Botânico  D,,32.66230088555381,-16.894092739076097
1355,273,Beco João Preto  S,,32.655031496610825,-16.892764783268987
1354,275,Saída R L Boa Vista,,32.6556168799541,-16.89407684322033
1348,279,ESTR VISC Cacongo  ESCL  S,,32.65706065306727,-16.895226313533975
1342,28,Corama  Centromar,,32.637006773758735,-16.94495728771231
1886,474,LEV STA Luzia  T-26,,32.661759353494986,-16.912235291719053
1890,476,Rua LEV STA Luzia  Lages  D,,32.66235445706025,-16.912368168841414
1951,496,Rua DR Ernesto Oliveira,,32.66151085563159,-16.90053917430235
1953,497,Rua Comboio  S3A,,32.658391978186096,-16.908929705593653
547,C49,Sítio da Eira de Fora,,32.68961044689789,-16.84343057688913
260,C54,Depois REST Katespero,,32.690982168296316,-16.83984106902693
272,C137,Moinhos-Chão Lagoa,,32.66480314741334,-16.837008750782932
1113,C278,Depois Igreja do Rochão,,32.692652140872966,-16.862358696828778
1213,C166,R Vimieiros-Bombeiros,,32.6699819943149,-16.84739888667317
1197,C189,Tribunal de Santa Cruz,,32.688979622583204,-16.789456638157976
1258,C202F,CAM do Boqueirão  6A,,32.6912460327148,-16.8233261108398
1246,C202H,Fonte Almocreves  T-110,,32.69007900248218,-16.82245867215306
1136,C103,Santo da Serra-Término,,32.724069744656354,-16.8185715901091
1134,C105,Depois do Hipermóveis ,,32.6484234555219,-16.855877016595784
1558,1198,Caminho da Quinta  D5A,,32.66080452994258,-16.92403562335834
1555,1199,Depois Capela Ajuda,,32.637484251845436,-16.940204510962143
1415,315,Rua Lazareto  S2A,,32.648130515244404,-16.88814734457241
1413,316,CAM Voltas  Escola  D,,32.66453511580829,-16.89470445171105
1412,317,Antes Pontes Lazareto  S,,32.64922931383792,-16.886815781193643
1402,318,Curva João Ladrão  D,,32.6651947778278,-16.89290942680104
1414,319,Depois Pontes Lazareto  S,,32.64918529384557,-16.8857247353967
1401,32,APS Piornais,,32.6396369934082,-16.9460067749023
1395,320,Igreja Choupana  D,,32.66643584818798,-16.892374819151883
1388,321,Lar Bela Vista  S,,32.64698121781871,-16.886270733844963
1387,322,Largo do Miranda  D,,32.6665643756977,-16.890548721255612
1385,323A,Casa Saúde C Pestana  S,,32.647789161627166,-16.885228679057004
1384,323B,Rua Nova Igreja  S,,32.64851724880403,-16.88489307312043
1482,330,CAM Curral Romeiros  D3A,,32.67258951799371,-16.8892481029742
1494,333A,Rua de Santa Isabel  S,,32.65698178075879,-16.888195683465653
1589,339,Travessa do Pomar  D1A,,32.66178321945661,-16.88606671027102
1595,34,APS América  D,,32.64119329787067,-16.944782474000483
1341,280,Bairro do Hospital,,32.64841430875148,-16.922273711012615
278,C138,Depois da ENT Serralhal,,32.6669568253057,-16.840518220492275
279,C14,ENT Aldeia da Paz,,32.671681461967594,-16.862045414219224
274,C141,Entrada para Serralhal,,32.668458233213364,-16.83875338195111
523,C143,Depois da ENT Serralhal,,32.66732871603415,-16.841415931530097
290,C144,Biofábrica,,32.6713882098375,-16.847900789452495
522,C145,Serragem Nogueira,,32.66868666389428,-16.842775889476037
1187,C100A,Santo da Serra  T-77,,32.72410314011396,-16.818159194730868
1562,1209,CAM Curral Romeiros  S4A,,32.67548633687192,-16.890717218498853
1537,1213,Rua João Paulo II  S1A,,32.641514092941115,-16.92865269941152
1536,1214,Depois das Piscinas,,32.664658697878664,-16.934679730942275
1533,1217,Rua João Paulo II  S3A,,32.64013097272492,-16.932891643780845
1538,1218,ESC Ribeiro D Dias  D,,32.667133256520344,-16.891105206625745
1539,1219,R João Paulo II  BR  S,,32.639745401183525,-16.936822404084683
1541,1220,Rua Quinta dos Cedros,,32.65869140625,-16.9307994842529
1547,1221,Rua João Paulo II  S4A,,32.638997109901204,-16.938516275086492
1548,1223,Rua João Paulo II  S5A,,32.638718149281786,-16.94000114384464
1545,1224,R Padre E Pereira  D2A,,32.657381359377894,-16.929380677700202
1542,1226,Rua 2 Quinta Josefina  D,,32.65648754129569,-16.92893709774421
2437,1227,Rua Vale Ajuda  G Brasa,,32.63938045480767,-16.94549710526617
1843,344,Clube Bom Sucesso  D,,32.65852030373926,-16.897301104126818
1840,345,Rua Azevedo Meneses  S1A,,32.65945939045781,-16.89423139225052
1838,346,ESTR B Nova  EDF B Nova  D,,32.65874593660531,-16.895746825231512
1837,347,Rua Azevedo Meneses  S2A,,32.660026309859305,-16.895320799427925
1588,347A,Jardim Botânico  T-31,,32.6619911193848,-16.8939609527588
1587,349,Jardim Botânico  S,,32.66244997364648,-16.894051712701863
1339,283,Bom Sucesso  S,,32.6581540428394,-16.89603610119488
1338,284,Rua Lazareto  D2A,,32.64735261392902,-16.88952665077866
1346,288,Depois Pontes Lazareto  D,,32.64915330086154,-16.88698192687788
2105,295,Escola Salesiana  S,,32.65596812371625,-16.896786322042786
2436,1229,Estrada Nova Poços CMF,,32.647654778149715,-16.957762363997745
2286,1235,CAM Lombo Jamboeiro  S,,32.67090103206037,-16.93335153237303
2290,1245,LMB Jamboeiro  T-93,,32.67572026991633,-16.933056118477012
2291,1247,Rua Vale Ajuda  S3A,,32.63945108790259,-16.945382608958013
1740,1275,Caminho do Galeão  S3A,,32.67482093436431,-16.929758351627708
2269,358,Transval  D,,32.659360217670105,-16.886328719835785
2270,359,Largo do Miranda  S,,32.66647548091536,-16.8903720786851
1581,35,Hotel Casino Park  S,,32.644973566031375,-16.91776256620903
1578,357,CAM Voltas  Antes Igreja,,32.66647529785347,-16.89297250577028
1584,231,ENT para CAM Neves  C38  S,,32.648299756045326,-16.869384427896936
1585,234,Urbanização do Faial  D,,32.652587464945746,-16.8906613495124
1580,177C,Caminho D João,,32.65812518831761,-16.91629523648666
1579,178,ESTR C Carvalhal  253  D,,32.65009186582061,-16.879190397154122
1871,1287,Piscinas  S,,32.665353410967384,-16.933995935210124
1867,1293,CAM Lombos  Depois Pintor,,32.68135963690734,-16.906999237609966
1874,1299,Rua 2 QTA Josefina  S2A,,32.657258997447585,-16.929331242778492
1865,133A,Jamboto  T-12,,32.67173841683855,-16.93729674204109
1850,136,Antes Muro da Coelha,,32.662188111966344,-16.92349118235271
1849,137,Golo  S,,32.67135494775213,-16.934213622724503
1847,139,Terraço  São Roque  S,,32.6705352478502,-16.933316769353947
1857,146,Rua 5 Outubro  Viveiros,,32.656856151757445,-16.91804436568885
1570,149,Depois CAM Água de Mel,,32.67220828779028,-16.92646122885546
1516,151,Depois Super S Roque,,32.672119477993284,-16.924009255806332
1514,153,João A Freitas  frente 191  S,,32.670912908048706,-16.922684962584835
1519,154,Alfândega,,32.6473993001066,-16.905641287624743
1520,155,João A Freitas  Eurocash  S,,32.66896718012852,-16.92401010321213
1984,304,Travessa do Pomar  S1A,,32.66235818739201,-16.887252936969784
1968,18,CZ Lido,,32.63810364003788,-16.93030494600673
1527,158,CZ Rua Nova Alegria  D,,32.65105445768102,-16.900135875368072
1523,160,Americana  D,,32.65106648938789,-16.897318436395608
1525,162,Miradouro Vila Guida  D,,32.65013576199009,-16.895715305163588
1506,164,Antes Rua Louros  D,,32.6494414651077,-16.893015045582366
1499,166,TV Rio Janeiro  D,,32.65089524557435,-16.890859262553278
163,C113,ESTR João G Zarco-Escola,,32.652525419834966,-16.84410599799201
471,C147,Bairro da Nogueira,,32.67022716196414,-16.844919578862932
470,C147A,R Orquídeas-PSP,,32.67062242809603,-16.846398772350703
473,C148A,Antes da Padaria,,32.67665933524968,-16.85206117278121
475,C15,Sítio do Vale Paraíso,,32.67537537275163,-16.859371522775916
480,C151,ENT TV João Cláudio,,32.67205054036228,-16.84923734397608
482,C151A,Nogueira  T-114,,32.67139201580289,-16.84888460134678
1552,120,Depois do Galeão,,32.67218107345928,-16.928087803696183
1554,1200,Caminho da Quinta  D6A,,32.65992045469791,-16.923787592006924
1561,1203,Depois Escola Salesiana,,32.65566801964458,-16.895932313851365
2435,123,Direção Guarda Florestal,,32.67047244904386,-16.944617362855826
2258,1231,Vereda Capela Santana,,32.66902298851115,-16.931055480670427
1761,55,Depois Forum Madeira,,32.637032634646864,-16.94476462869911
1727,794,RG-3,,32.642942096024754,-16.934150061475783
1521,156,Antes C C Anadia  D,,32.650032851568675,-16.903764215884394
1522,156A,Praça Autonomia  D,,32.647533416748,-16.9049205780029
1528,157,Depois da Quinta,,32.66632147277635,-16.92532306899458
1529,159,Quinta  S,,32.664657419449874,-16.926239175221735
1524,16,Centro Comercial Anadia,,32.64944986999413,-16.904229830424033
1498,167,Igreja São José  S,,32.65860618116971,-16.921451568132237
1496,169,Antes da Brisa,,32.65823292019631,-16.920176573258175
1996,203A,S Gonçalo  Depois Chão Loba ,,32.64992765176366,-16.88715325954285
2140,527,Depois Ribeira J Gomes  S,,32.660979239155694,-16.899751664890513
1245,C202I,Capela-Fonte Almocreves,,32.69055719240849,-16.822716484060763
1231,C202N,CAM do Boqueirão  4A,,32.69322119831364,-16.82769029146614
2278,360,Boa Nova  Vereda Rocha,,32.66141077783348,-16.88430045950596
2276,363A,Pneuzarco  S,,32.67003433703581,-16.890311478145925
2274,364,Boa Nova  QTA Orinoco  D,,32.66027718098754,-16.880244497667498
2273,365,Choupana Hill  S,,32.67059961303632,-16.890039264051353
2280,366,Telheiro de Zinco  D,,32.660879842399986,-16.878142153633448
2299,311,Rua dos Louros,,32.6473362605364,-16.892368391046688
1743,367,CAM C Romeiros  LEV Serra,,32.67254570624353,-16.88919247474898
1766,242,Antes R L Boa Vista,,32.65557746594751,-16.894129536890325
1765,244,Alto Bom Sucesso  D,,32.65612453423604,-16.894370100702773
2250,250,Bom Sucesso  D,,32.65815879298541,-16.895882973090213
2256,251,Rua Pedra Sina  S,,32.65163073327817,-16.888314672663814
2255,252,CAM Vale das Neves  D,,32.6475534978368,-16.868972791798544
2254,254,Rua Nova Alegria,,32.651979449905355,-16.89982019975105
2252,255,R Pedra Sina  Sociedade,,32.65427119574263,-16.888530595535833
2251,549,CZ Livramento  S,,32.66745264772509,-16.916034895871437
1748,553,Depois Pedreira  S,,32.66821657230218,-16.91313348652539
1058,556,Corujeira Fora  D,,32.67667342691249,-16.909692334951384
1745,556A,Antes Tanque  CAM Corujeira,,32.674477764949806,-16.910854744506626
1751,559,Entrada Sanatório  S,,32.669916400671916,-16.908344493700785
1757,561,Hospital Marmeleiros  S,,32.67177594689469,-16.909994752056456
1739,566,CAM Saltos  Padaria,,32.67002870996542,-16.91603198579467
1699,568A,Portada STO António  Ribeiro,,32.670869424657745,-16.90572559479485
1500,171,Modelo dos Viveiros,,32.65977397613298,-16.919797550800272
1501,172,ESTR Conde Carvalhal  D,,32.65114821899491,-16.885978330065115
1503,174,ESTR C Carvalhal  RIB  D,,32.65218824833182,-16.883781680652742
1508,1285,Ponte  Antes das Piscinas,,32.66442841705793,-16.934834917394294
1998,204,ESTR Camacha  Bica Pau  D,,32.65518429745287,-16.878881069893403
2125,417A,Estrada da Camacha  S4A,,32.66464475717009,-16.869305309945407
479,C152,Antes REST Casa da Avó,,32.67996016459978,-16.8540192383442
1230,C202O,CAM do Boqueirão  5A,,32.69307393070966,-16.82956801055476
1242,C208,Depois Achada Barro,,32.72108793580914,-16.832821331083284
1687,568B,Portada STO António  Final,,32.6707916259766,-16.907112121582
1692,873,Caminho da Lombada  S,,32.64993033351095,-16.9645723442042
1676,875,CAM da Lombada  D,,32.65178960217781,-16.96301370787679
1669,877,R C Marítimo  QTA Falcão  S,,32.6676372894247,-16.937108753438835
1668,877A,Cota 40  Cruz Vermelha  D,,32.651683807373,-16.9123210906982
1667,877B,Rua Maravilhas,,32.6483899788632,-16.921996658656134
1671,878A,CAM Três Paus  Escola  D,,32.67243875718,-16.954366760832396
1054,878C,CAM Tres Paus  D2A,,32.66963845323628,-16.954994248784665
1678,878F,CAM Três Paus  D4A,,32.67035948951007,-16.952735446997956
1736,799,Lombada  Socorridos,,32.64652215582809,-16.969724607353157
1507,176,Igreja de São Gonçalo,,32.6498950541416,-16.881875946698603
1505,177,Ponte Pau,,32.65503590372195,-16.91453331335162
1631,1049,Caminho do Galeão  S2A,,32.67395208497974,-16.92993203432801
2160,111B,Depois Capela Preces,,32.66447261618483,-16.94951096261628
2467,S134,Centro Saúde Santana,,32.80474594916388,-16.881792234162457
2468,S117,R DR Agostinho Cardoso,,32.80904826378553,-16.88417512853321
2464,1300,CAM Lombada  Depois ROT,,32.6479301452637,-16.9662971496582
2474,618A,CAM Novo Santana  D1,,32.66782585802192,-16.93033263440649
2245,1309,CAM das Lajinhas  S1A,,32.67967443107083,-16.905806807738692
2502,1310,CAM Quebradas Baixo  Lar,,32.64924790655753,-16.95878861572994
2512,1361A,AV do Amparo  S,,32.64761917252198,-16.940554988633977
2513,1363A,AV do Amparo  D,,32.647361423134846,-16.94069946042328
2045,210,Estrada Camacha  D2A,,32.65771049638053,-16.875608278290095
2044,212,Estrada Camacha  D1A,,32.65937077920774,-16.872972954565135
531,C214,Antes da Igreja de Gaula,,32.67832215398913,-16.825759141581447
533,C219,ESTR Gaula-Centro Saúde,,32.67173289757642,-16.81418350315967
532,C21A,Camacha Shopping  T-129,,32.675402992416686,-16.852699755118753
286,C226,ESTR Gaula-PT,,32.67396892719118,-16.818030442550292
284,C227,Gaula-Casas Novas,,32.67240013048894,-16.817889282891663
285,C229,ESTR Gaula-PT,,32.6741838157319,-16.81799619637575
477,C153,ESCL Primária Camacha,,32.67545078484384,-16.85204460833488
466,C156,LEV da Serra do Faial,,32.68276958998991,-16.855279662188252
478,C158,CAM Ribeirinha  3A,,32.6729202270508,-16.8392772674561
1212,C162,Capela da Ribeirinha,,32.670633518610096,-16.83974742346751
1210,C164,CAM Ribeirinha,,32.66968979999781,-16.839515220003875
1208,C165,LEV da Serra do Faial,,32.68270568585878,-16.8551905787883
1221,C173,Carreiras-LEV Serra Faial,,32.67534049006308,-16.86341655575633
1677,834,Caminho da Lombada  D,,32.64975525237921,-16.964906028984437
1675,835,CAM Poço Barral  S2A,,32.6563949584961,-16.9532012939453
1725,79,Escola Horácio Bento  S,,32.64934669607233,-16.92572800531033
1723,791,Rua DR Pita  Escola,,32.647206767101316,-16.931475659829086
1728,795,CAM C Branca  Katespero,,32.64029721723853,-16.928275091201762
1729,797,CAM C Branca  Buganvília,,32.639139719145184,-16.930232576148548
1625,1052,Largo TV do Pomar  D,,32.6637131732983,-16.889281874831656
1652,1055,Caminho Novo Galeão  D3A,,32.67442110672324,-16.92868511002103
1608,1060,Beco da Lindinha  D1A,,32.65930088459175,-16.889007828314256
1606,1061,CAM da Cova do Til  S1A,,32.65797591409851,-16.955822081253633
1295,1068,Armazém Inteligente,,32.66346209476643,-16.949280677812588
1294,1069,CAM da Cova do Til  S4A,,32.65759364014274,-16.957756726202124
1296,107,Pico dos Barcelos  S,,32.65905763528261,-16.941077817039076
2458,1290,Rua Cidade Santos  D2A,,32.66606212940022,-16.915434683946785
2043,213,ESTR C Carvalhal  196  S,,32.650094631246915,-16.87934267255407
2042,214,Rua Pedra Sina  D3A,,32.65041189525414,-16.88780794132458
2119,417B,Levada dos Tornos,,32.6645921700988,-16.86705524315517
1207,C176,Carreiras-Chão Casas,,32.68316928674846,-16.872990393457286
1206,C178,Carreiras-Sosousas,,32.68025263119006,-16.87240677283573
1200,C179,Carreiras-Bar 21,,32.6853370666504,-16.872745513916
1193,C18,Antes da ENT Carreiras,,32.6730735154095,-16.860328738937728
1192,C181,Borracheiro-Aviário,,32.687906952651794,-16.867991573563263
1733,8,Parque STA Catarina,,32.64584633082073,-16.914925782822294
1709,805C,Rua Vale Ajuda  S1A,,32.63734776402071,-16.94209433280774
1716,805E,Rua Vale Ajuda  S2A,,32.63775581903211,-16.943712212660795
2388,818,CAM Poço Barral  Levada  D,,32.65570606172887,-16.948899342823903
2371,829,Lido,,32.63679259341763,-16.934226286752644
2372,83,ENT Rua Virtudes,,32.65027426120533,-16.929106812253977
2377,830,Ponte do Baptista  D,,32.65047265071203,-16.945462930101876
1556,1,Marina,,32.64656220063713,-16.9103836065027
1622,1044,Caminho do Pasto  D3A,,32.65327189763643,-16.885574434469152
1626,1051,Final Caminho do Galeão,,32.6764793395996,-16.9297790527344
1632,1053,Caminho Novo Galeão  D1A,,32.67567918364134,-16.929781060713438
1286,106,Saída Lombo dos Aguiares,,32.671224718746245,-16.937890772266464
1290,1072,Antes Viaduto Cota 200,,32.66444859708307,-16.90153104107144
1604,1073,CAM da Cova do Til  S6A,,32.653956955480346,-16.95899220728257
1603,1074,Rua Campo do Marítimo,,32.671576788731194,-16.936402559055182
1602,1075,CAM STA Quitéria  S,,32.662268471984184,-16.952975037072473
1659,108,Jamboto  T-13,,32.67193992298106,-16.936260812870085
1599,1084,Antes da Renault  D,,32.65572413545718,-16.92238114005868
1663,1088,CAM ESCL do Galeão  D1A,,32.671114528697615,-16.92897104589105
2046,215,Antes CZ ESTR Camacha  S,,32.64885153857073,-16.87771743164993
2047,216,Rua Pedra Sina  D2A,,32.651665744896654,-16.88836962507553
550,217,Restaurante Boa Vista  S,,32.64765337519488,-16.87543644249707
2053,219,Estalagem Montanha  S,,32.646378537350884,-16.87213635318225
1255,C201,Snack Bar A Foca,,32.678453952710036,-16.799466167050557
1731,80,Romeiras  Apartamentos,,32.660393031335374,-16.9437049345404
1720,801,CAM Meio  Papagaios  S,,32.6611061108899,-16.895347006204283
1732,802,Rua E U A  Nazaré  D,,32.6474456787109,-16.937536239624
1719,802A,Antes Tourigalo  Nazaré,,32.64867868758506,-16.937004223548627
1713,802B,Rua Brasil  D1A,,32.64755749747066,-16.93707195792201
1706,802C,Rua Brasil  D2A,,32.647094631422284,-16.93581925494756
1704,802E,Rua Brasil  D4A,,32.645170095324865,-16.933525328335396
1703,803,Rua Velha Ajuda  S,,32.63889986922186,-16.931265061159404
1702,805,R Velha Ajuda Tropical  S,,32.63913574781804,-16.933015616654924
1707,805A,Depois ENT Bairro Ajuda,,32.638952454361714,-16.936192370707907
1708,805B,Capela da Ajuda  S,,32.6379530801625,-16.939132572901116
1714,808A,Rua STA Rita  D1A,,32.65132067932339,-16.95650818862062
2373,833,CAM Poço Barral  Levada  S,,32.6554145812988,-16.9500427246094
1614,108A,Frente Término-12  D,,32.67167736329449,-16.93739000723896
2186,109,Antes CZ das Romeiras,,32.660420461144966,-16.943539706406483
2174,1090,CAM ESCL do Galeão  D2A,,32.67037568460141,-16.92932261204025
2173,1091,Beco da Lindinha  S1A,,32.65851366710311,-16.88761355031468
2172,1092,Centro Saúde S Roque  S,,32.67023649902425,-16.927687642029976
2051,221,Pista Automodelismo  S,,32.64685540575507,-16.868058005184572
1907,570,Depois CZ CAM Monte C22  D,,32.66926277319193,-16.904252747465335
2213,1315,AV Santiago Menor  S1A,,32.65009566333406,-16.899289578687362
2211,1319,AV Santiago Menor  S3A,,32.64817770054224,-16.89466568963928
2209,1128,Choupana  T-94,,32.67087685876634,-16.88629175652973
2207,113,ENT CAM Velho Chamorra  S,,32.662377714794125,-16.947947147070774
2095,1148,Caminho do Terço  S2A,,32.66479365052753,-16.885899366693273
1190,C183,Rajão-Mesas,,32.690249616669924,-16.86819340791653
1189,C184,ESTR das Carreiras,,32.673195910259174,-16.861787704333864
1194,C186,Antes Caniço Shopping,,32.655690014013686,-16.841624947203524
1195,C187,Apartamentos-Pedra Mole,,32.65702009795909,-16.8368043379292
1196,C188,Caniço Shopping,,32.65325657260487,-16.841803330021882
1203,C19,Vale Paraíso-Oficina,,32.67413299238449,-16.857490108037723
1202,C190,ESTR João G Zarco,,32.6525599023439,-16.84378803666983
1204,C192,Nestlé-Caniço,,32.652865043690376,-16.845706046365887
1199,C194,Peças Auto-Caniço,,32.65095694926235,-16.848873126698344
1198,C195,ENTRONC do RIB Serrão,,32.68847764178621,-16.85239082648617
2396,743A,Rua QTA Leme  S1A,,32.657378784941656,-16.935083582217782
1440,650B,ESTR São João  D,,32.652186237747614,-16.91970204966882
1444,650E,Rotunda Tecnopolo  D,,32.65948288658764,-16.927033483144573
1451,653,Parreira  S,,32.662344422775675,-16.92821040413598
1662,1082,Boletim Metereológico,,32.64738519461132,-16.891578041663692
2171,1093,Beco da Lindinha  S2A,,32.65942314565635,-16.889133370654505
2175,1095,Caminho Casa Velha  S1A,,32.66062108264371,-16.889956256581964
2176,1096,Caminho do Pasto  D1A,,32.6547314635798,-16.88329897012055
2177,1097,Caminho Casa Velha  S2A,,32.66190313455083,-16.890042266295865
1353,277,Alto Bom Sucesso  S,,32.65641097976488,-16.894616109874708
1905,572,CZ CAM Desterro  Monte  D,,32.66963297462476,-16.90236541341755
1904,573,CAM Corujeira  PQ Estacio,,32.676579028736036,-16.907000945821597
2025,1149,R Nova Pico São João  S,,32.65480157490268,-16.922283072766025
2024,115,Antes CZ das Courelas  S,,32.665520657658185,-16.94853763499013
2023,1150,Caminho do Terço  S3A,,32.66549198948312,-16.886538252564574
2022,1151,S Gonçalo  Depois Igreja,,32.6506444945936,-16.880676371346535
2021,1152,Caminho do Terço  T-94,,32.66618218941619,-16.8863220949753
2430,750,Casa Saúde Trapiche  D,,32.676522866535905,-16.94647065265124
2415,753,CAM Poço Barral  VW  S,,32.6564857920629,-16.943061636499227
2403,755,CAM Poço Barral  Opel  S,,32.65680358677176,-16.945340320968057
2402,756,Antes CZ Laranjal,,32.67492213093454,-16.94320991135996
2401,757,Serragem STO Amaro,,32.65713126031859,-16.94649461676929
2404,76,PAV dos Trabalhadores  D,,32.658118855040705,-16.942237185334154
2406,761,Igreja STO Amaro  C8  S,,32.65933735896338,-16.947828407431953
2407,762,Azinhaga da Nazaré  D,,32.6471634433907,-16.93329189521412
2408,767A,Fundoa Cima  S2A,,32.6715762886166,-16.918879398579474
2311,771,Capela do Laranjal  S,,32.67507346827605,-16.940633581967848
2310,772,Rua Velha Ajuda,,32.63979033434145,-16.944596486372678
2309,773,CZ Laranjal  S,,32.675359542666435,-16.942071739356155
2316,777,ENT CAM Curral Velho,,32.67740559550212,-16.943996450871268
567,779,ESTR Laranjal  Oficina  S,,32.67764171415507,-16.945003524153122
2323,781,Casa Saúde Trapiche  S,,32.67665814774836,-16.94654289320421
2301,692,BC Joaquim Carlos  D,,32.650802358840544,-16.92326160151502
2300,693,CAM STO António  BC ESCL  S,,32.66151003362779,-16.9336303728252
2307,694,TV Levada São João  D,,32.64857319820728,-16.921608204004126
2180,1101,CAM do Palheiro  S1A,,32.65995594912984,-16.879503732711704
1911,573C,CAM Lombos  S,,32.67948025188941,-16.90664492937218
1916,573E,Monte  Lombos,,32.68102753343319,-16.90892479297099
1889,583,Chão Marcos  Corj Fora  S,,32.67670684367922,-16.910973156887675
1888,585,Corujeira Fora  S,,32.6766844448043,-16.909632977482126
2138,471,Correios Livramento  S,,32.66611245374546,-16.913576183971347
2135,528,Monte  Miradouro  D,,32.669293011461356,-16.90989177795139
2126,529,R Til  ENT R Carne Azeda,,32.65516964676187,-16.912396657959057
2036,1159,R Palheiro Ferreiro  S3A,,32.66383080425846,-16.861900379189784
2033,116,Antes Ponte do Galeão,,32.672213187710305,-16.93143585911096
2031,1160,CAM Curral Romeiros  D2A,,32.67596588061652,-16.889841160069178
2005,1167,CAM Voltas  Depois J Ladrão,,32.665894155087855,-16.89302124811378
2004,1168,Rua João Paulo II  D3A,,32.6399002075195,-16.9322891235352
2012,1178,CAM LMB Jamboeiro Doca  D,,32.674568549831385,-16.93329400630854
2068,1183,Caminho do Terço  D3A,,32.66323015619185,-16.88565617025384
147,597,Levada Corujeira  T-19,,32.670916953251094,-16.914384376776283
935,618,CAM Novo Santana  D2,,32.66655957441587,-16.930604305332885
936,619,CAM Lombo Aguiares  D1A,,32.672826772792206,-16.938420361084688
396,621,CAM Lombo Aguiares  D2A,,32.674648937492115,-16.938851300864144
1069,628,Parreira  D,,32.66197827507991,-16.928007141396503
2343,697,TV Igreja STO António  S,,32.66317096797679,-16.93662177536211
2326,699,Igreja STO António  S1A,,32.66383294596194,-16.938627079177778
2350,699A,Centro Cívico STO António,,32.66374442564864,-16.940490848673868
2348,700,Marina,,32.646425647934706,-16.910930675809087
2352,703,ESTR das Courelas  S1A,,32.664181661357794,-16.94356055698408
2359,705A,ESTR das Courelas  S3A,,32.6661439656593,-16.94637248487795
2357,709B,CAM Três Paus  Levada  S,,32.66984047778553,-16.950837468664805
2335,710A,CAM das Bróteas,,32.665855331890256,-16.93498452984914
2340,710C,Rua Antero Quental,,32.66560818531477,-16.935972931893584
2339,713,Depois ENT Boliqueime,,32.67283514963904,-16.95018963805329
1885,72,CAM Esmeraldo  QTA Esmeraldo,,32.6553675167478,-16.941027885886385
2181,1104,R Palheiro Ferreiro  D1A,,32.6652104880255,-16.859408613198532
2168,1105,Rua da Boa Nova  S,,32.6582412719727,-16.8810806274414
2162,1106,R Palheiro Ferreiro  D2A,,32.66386680878932,-16.861833561167735
2155,1107,Travessa do Pomar  T-7,,32.65940771544129,-16.882457360603585
2154,1108,R Palheiro Ferreiro-LG  D,,32.66498588637505,-16.862666999609413
2153,1109,Rua QTA Josefina  RTP,,32.656494140625,-16.9279479980469
2152,111,Depois CZ das Romeiras,,32.661773367471,-16.946472822261814
2151,1110,Lagoas Palheiro Ferreiro  C-37,,32.662525880102336,-16.865719729083388
2156,1111,Depois Viaduto Cota 200,,32.664363861084,-16.9013500213623
1061,585A,Depois Tanque  CAM Corujeira,,32.67470987825952,-16.910593043803892
1887,473,ESTR Livramento  Antes CZ,,32.667121747851795,-16.914784979412655
2136,472,Consolação  D,,32.66062046187304,-16.90997058845898
1110,548,CAM Corujeira  D2A,,32.6793556213379,-16.9089298248291
1026,387,Cabeço de Ferro  S,,32.65880128825351,-16.89305732086021
1021,388,Centro Hípico  D,,32.666790924632274,-16.877110055626854
444,395,ESTR Boa Nova  S1A,,32.6586140929249,-16.886794681253
281,C127,Sítio da Pedra Mole,,32.657377127039965,-16.836407909934177
1635,724,Travessa Tanque  Final,,32.65599102006315,-16.949144061054582
1642,727A,CAM Azinhaga  D1A,,32.66709023762435,-16.931993308454516
1650,731,CAM Azinhaga  D3A,,32.67006267237404,-16.9339766098774
1647,734,CAM Pilar  C STO António,,32.655864972360426,-16.938780941511684
1627,737,Rua Levada Cavalo  BP,,32.65419773478271,-16.927898448031087
1620,738,CAM Pilar  Pilar Refeições,,32.6554078774781,-16.932990781748178
1617,641A,Alegria  T-42,,32.678150177002,-16.92041015625
1616,642,Tourigalo  Achada,,32.652935861716074,-16.91807913295843
499,643,CAM Água Mel  S2A,,32.66654369429446,-16.927308490816145
501,643A,CAM Água Mel  S1A,,32.66594410959061,-16.927141920480004
498,644,Beco Amaro,,32.65230116610252,-16.916480244341546
496,645,CAM Água Mel  S3A,,32.668608758707826,-16.92722174893319
2163,1119,R DR Caroço  BC Frias  S,,32.651116174498156,-16.918261869905034
2161,111A,CAM Velho da Chamorra,,32.66314978982167,-16.948998909032735
2167,112,Terraço  São Roque  D,,32.67047605497683,-16.933305857021097
2188,1122,CAM Novo RIB Santana  D1A,,32.669878476138834,-16.930788134578545
2241,1124,CAM Novo RIB Santana  D2A,,32.66865834438314,-16.931674734944796
2470,1367,R P Sina  Depois Sociedade,,32.654373622263925,-16.887639158587863
2461,1369,CAM Lombada  Antes ROT,,32.6481704711914,-16.966287612915
2532,1211A,Curral Romeiros  S6,,32.67598717503564,-16.89111948484083
1943,491B,Rua DR Ângelo A Silva  S,,32.65963520276594,-16.912787245218542
1944,493,Rua Comboio  S1A,,32.65473423235316,-16.90945476492444
1952,495,Rua Comboio  S2A,,32.6564225788713,-16.90939410703831
1205,C196,ESTR João G Zarco,,32.64979872976284,-16.84960062082877
1225,C197,Antiga Pedreira  1A,,32.68101815512953,-16.798355082515616
1226,C198,LEV da Serra-ESTR Gaula,,32.69403883282019,-16.836033300596633
1227,C199,Antiga Pedreira  2A,,32.680281711915285,-16.79962028117248
1726,793,Azinhaga da Nazaré  S,,32.647388360290634,-16.93345759209367
1735,798,PSP  Nazaré,,32.64574022049013,-16.93425648430188
1734,798A,Rua África do Sul  D,,32.64537109945829,-16.9353802857498
1441,650,Viaduto São João  D,,32.64932097296318,-16.918463628410688
1439,650C,Renault,,32.65507250090327,-16.9214092080231
1446,652,Edifício 2000,,32.64786516763258,-16.9162155779421
1447,656,Vereda  CAM E Serrado  D,,32.6765030776846,-16.950646076160563
2157,1112,Depois Lombo Quinta  C-37,,32.65990309567261,-16.873728615152782
2158,1113,Antes Eurocash S Roque,,32.66799673476143,-16.924740115889456
2159,1114,Antes Igreja S Gonçalo  D,,32.65072557485954,-16.88071428711684
2165,1116,Depois Igreja Choupana,,32.66595063410855,-16.893163613072108
1947,4A,Teleférico-Término,,32.64732094128008,-16.902694983903064
1937,50,Escola Horácio Bento  D,,32.649239690473436,-16.92558347216411
1936,501,Depois CZ L STA Luzia S,,32.6616325378418,-16.9079475402832
558,503,Depois R J Carlos Gomes,,32.6628494262695,-16.9075794219971
1933,511,Antes CZ CAM Monte  S,,32.659029653099886,-16.905496225038842
1934,513,Beco do Pão Duro  S,,32.6609497070313,-16.9075603485107
2001,51D,Rua Vale Ajuda  D1A,,32.637592002173655,-16.94371175956377
2130,51E,Rua Vale Ajuda  D2A,,32.63723649377699,-16.94136210816759
2129,52,CAM Virtudes  L Barreiros,,32.65019008719085,-16.928569817432713
1250,C1D,Rua da Infância-PSP,,32.65068835219579,-16.902358352670493
1247,C20,Sítio do Vale Paraíso,,32.67541264311708,-16.859994850006416
1263,C202D,CAM do Boqueirão  4A,,32.692904088020526,-16.826413286217957
1260,C202E,CAM do Boqueirão  5A,,32.69177921533105,-16.824679097204424
1244,C202J,CAM do Boqueirão  1A,,32.69118740193877,-16.823317201073486
1239,C202L,CAM do Boqueirão  2A,,32.69182862986177,-16.82464745662091
1232,C202M,CAM do Boqueirão  3A,,32.69290781391303,-16.82624675997598
1229,C203,ESTR Velha de Santa Cruz,,32.67743425878165,-16.802731767656727
1454,453,Quinta do Baltasar  S1A,,32.6649932861328,-16.9010810852051
1455,454,Depois CZ LEV STA Luzia  D,,32.66050139240751,-16.908386242140036
1480,455,ESTR Livramento  Ponte  S,,32.666073384270916,-16.90168599376275
1479,456,Rua Comboio  D2A,,32.66165557570365,-16.908047056901406
1481,457,Quinta do Baltasar  S2A,,32.66526794691329,-16.9027016687067
1478,458,Rua Comboio  D1A,,32.66305708816834,-16.907616064312403
1381,44,CAM Amparo  Coohafal,,32.648496114614204,-16.94193240649319
1369,441,Colégio STA Teresinha  S,,32.655632019043,-16.904577255249
2128,520,CZ Livramento  D,,32.667335578620225,-16.916138044723684
2127,521A,Rua Cidade Santos  S1A,,32.66287998140007,-16.914953604956843
2131,521B,Rua Cidade Santos  S2A,,32.66437734544937,-16.914931067454578
2133,522,Monte  Pedreira  D,,32.66770543640129,-16.91477491121742
2134,523,Início R Sidónio Pais  S,,32.65922247248141,-16.901838054839146
2139,524,Monte  Rua 1 de Maio  D,,32.667896012624865,-16.913362084979976
561,526,Monte  Depois Miradouro  D,,32.66938713737174,-16.91128248624392
366,C256,Snack Bar A Foca,,32.680181435524844,-16.79945951410379
365,C257,Reta da Azenha-Mistubishi,,32.65352731465673,-16.84505246920632
1233,C205,São João-Santa Cruz,,32.67639764331309,-16.803601684195034
1234,C206,CAM Ribeiro do Louro  1A,,32.68878355125034,-16.822250939188063
1477,46,Rua Ilhéus,,32.64533733859904,-16.922465525330587
1460,373,BP Campo Barca  S,,32.65562440484875,-16.900086113661015
1459,374,Lombo da Quinta  D,,32.660583696568395,-16.87407146495009
1457,376,Entrada QTA Palheiro  D,,32.66214512304101,-16.87208359551007
1374,445,Rua Pedro J Ornelas  ESCL,,32.6576499938965,-16.9036407470703
2449,1191,Depois Largo Miranda,,32.66638974132114,-16.889639432236834
2440,128,João A Freitas  Eurocash  D,,32.66848947727844,-16.924512251861287
2439,1127,Depois Hotel QTA Lago,,32.65658754694349,-16.919057432965946
2453,406,Rua Pedro J Ornelas  D2A,,32.6576465477256,-16.90376204803241
2447,408,Rua Pedro J Ornelas  D1A,,32.6597137451172,-16.9027690887451
1280,409,Lombo Quinta  T-50,,32.66009533323595,-16.87480389277969
1382,41,Pestana Village,,32.639997191536075,-16.92532694585407
1408,37,Hotel Savoy  S,,32.644058504060474,-16.92080897586996
1416,313,Rua Lazareto  S1A,,32.64730947896793,-16.889370891066847
2112,417P,Palheiro Ferreiro  APS  S,,32.66398019512881,-16.870153802178248
2111,418,Quinta do Baltasar  D1A,,32.66500972112573,-16.902784723082384
2110,419,Caminho dos Pretos  S1A,,32.66528297892629,-16.87150226750735
2109,42,CAM Amparo  Conservas  D,,32.647118138572864,-16.942359627655684
2108,420,Antes CZ CAM Monte,,32.664344176974105,-16.905340113186867
2113,421,CAM dos Pretos  S2A,,32.66606731863534,-16.872564755240717
2214,429F,São João Latrão  T-47,,32.66316874967567,-16.88050247796343
2216,43,Hotel Girassol,,32.638744354248,-16.9282550811768
622,S157,Igreja de São Jorge,,32.82782276916003,-16.906577322971795
1121,S1,Pocinhos-Zona 39,,32.67980979237701,-16.90585587706771
355,C258,Santa Cruz-Pedreira  2A,,32.68111248559381,-16.799427414655508
1254,C100,Freguesia do Santo Serra,,32.72478194645896,-16.82026215423151
1493,333,Rua Murteiras  Padaria  S,,32.65646283962243,-16.888354315937143
1594,33A,R J Dias Leite  Rotunda,,32.646389002655525,-16.9128727630903
553,341,Travessa do Pomar  D2A,,32.66266593557105,-16.887435989042682
1841,343,Largo TV do Pomar  S,,32.663642219694474,-16.88911522151905
1575,350,Entrada CAM Casa Velha,,32.65843624214294,-16.890433606072264
1574,351,CAM Voltas  Antes Escola,,32.6642005358524,-16.893729213608207
1576,354,Viaduto Boa Nova  D,,32.65736151237884,-16.88726656734313
1582,235,Estrada do Aeroporto  S,,32.6536667913544,-16.877384272398867
2476,1302A,CAM Três Paus  Viana  D2A,,32.6678686171003,-16.95603923784618
2485,CF35A,Antes da Capela,,32.715067137691435,-16.968608097196462
2486,CF37A,Escola Seara Velha,,32.71448341955311,-16.969409874796302
2487,CF12A,Escola Seara Velha,,32.71447903792858,-16.969338093127295
2488,CF14A,Depois da Capela,,32.71505541237846,-16.968536154009428
2489,CF30B,R ENG Ornelas Camacho  3A,,32.721416885883826,-16.964184313009106
1307,998,ER 229  Oficina,,32.65282848314894,-16.959757705101158
2514,1320,Vereda Poço Morgado  D1A,,32.679156896724365,-16.943882931750597
1942,489,CZ Rua STA Luzia,,32.65711075385267,-16.907190614768645
2202,1130,Caminho do Meio  187,,32.66994185127606,-16.886657353805553
2195,1131,Infantário D Olga Brito,,32.652837701227085,-16.917881164777366
2194,1132,Caminho do Meio  177,,32.66929246466033,-16.88752600713855
2145,1133,ESTR São João  Igreja,,32.65208832625305,-16.919548877284715
2200,1144,Rua Clube Choupana  D4A,,32.66355121667272,-16.889848806639638
2107,1145,Rua 4 Pico Romeiras  S,,32.663291916393725,-16.947585103009626
2217,1146,Caminho do Terço  S1A,,32.66328261915782,-16.885595827325904
2106,1147,Courelas  T-9,,32.66429181054555,-16.947728393170483
822,S232,Antes Igreja São R Faial ,,32.77235891357655,-16.855302101302637
990,73,Centro  Freitas e Neto,,32.64495842486188,-16.922210439487007
1007,921A,Artistas,,32.65270582514083,-16.910325853621902
347,C27,Depois ESCL SEC Camacha,,32.67925458436905,-16.848217808317273
1188,C10,Sítio da Madre Água,,32.67089007928976,-16.867771350953635
2419,747,ESTR Aeroporto  Gaspar e Filhos,,32.647756934984876,-16.8661454211389
2347,701,Romeiras  Posto Médico,,32.66367808875557,-16.941854448428433
2358,707,CZ das Courelas  S,,32.66664585000666,-16.94911472519205
2342,711,Entrada Boliqueime,,32.671003546867105,-16.949636004258647
1645,735,Rua Nova Lev Cavalo,,32.652812801145025,-16.92603008040667
1397,327,Rua Cidade Santos  S4A,,32.66639473760348,-16.916121500401005
1399,328,Choupana Hill  D,,32.670613890724894,-16.89012377086374
1396,328A,Pneuzarco  D,,32.670028718858724,-16.890363561006428
1845,239,ESTR Camacha  viaduto  S,,32.653852525173214,-16.878567119312102
1879,131,ESTR CMDT C Freitas  Rampa,,32.67168585715151,-16.93934472320287
1877,132,Quinta  D,,32.66467116818762,-16.926331541320405
1876,133,Lombo dos Aguiares,,32.67123832389818,-16.93820924278694
1856,146A,Rua 5 Outubro  Ponte Pau,,32.65538189403628,-16.91555359634562
1571,147,Saída CAM Novo Galeão,,32.6724511360804,-16.928027626940832
2531,1211B,Curral Romeiros  T-29,,32.67653800264019,-16.89106231952185
1357,260,Depois Salesianos,,32.65478789156962,-16.897067804610085
1771,270,Forca  D,,32.64754010985995,-16.896523866581045
363,C250,São João-Santa Cruz,,32.67633371111818,-16.80345270501195
364,C251,Sítio do Boqueirão,,32.6906739335218,-16.833183594977033
370,C252,ESTR Velha de Santa Cruz,,32.677511839631066,-16.8015161061512
371,C254,Snack Bar A Foca,,32.67827713521337,-16.799458995243736
368,C255,LEV da Serra-ESTR Gaula,,32.69407496375617,-16.8357468486853
1393,33,R J Dias Leite,,32.64612516628012,-16.912711627087937
1852,13A,AV Mar  Alfândega,,32.6471405000887,-16.905922645210747
1853,14,Hotel Cliff Bay  Bes,,32.63944998671458,-16.92626108195864
2212,1323,AV Santiago Menor  S5A,,32.64817169598874,-16.890466918191127
2218,1325,AV Santiago Menor  S6A,,32.6491513038623,-16.889010422980483
2222,1234,AV Santiago Menor  D1A,,32.64910945251256,-16.889169925234416
2219,1236,AV Santiago Menor  D2A,,32.648395682883205,-16.890705377216666
2146,1238,AV Santiago Menor  D3A,,32.64831534249395,-16.89294844619664
2224,1240,AV Santiago Menor  D4A,,32.64831160484464,-16.894728938841453
2147,1242,AV Santiago Menor  D5A,,32.64913319834404,-16.896102647373997
2223,1244,AV Santiago Menor  D6A,,32.65016751450333,-16.899641658155236
2221,809,CAM Cova do Til  Final,,32.65330056791401,-16.959345121556222
2220,332,Rua da Boa Nova  Saída,,32.6604042053223,-16.8823699951172
2208,1129,Hotel São João,,32.64857116561643,-16.91904219047984
2026,1153,Lagoas Palheiro Ferreiro,,32.66245336239776,-16.86553509651796
5764,1115A,Azinhaga dos Ausentes,,32.655535773832185,-16.924540265258027
5765,9B,Casa STO António,,32.64837484569557,-16.905836361103564
5766,183B,Rua do Oudinot,,32.64987179512003,-16.903574633015047
2027,1154,Ilma  C-35  D,,32.64205478599855,-16.949672457742217
2028,1155,R Palheiro Ferreiro  S1A,,32.66256433221327,-16.86449107520336
2029,1156,Rua Basto Machado,,32.6421890258789,-16.9484252929688
2035,1157,R Palheiro Ferreiro  S2A,,32.66493591544044,-16.862996828202927
2034,1158,CAM Curral Romeiros  D1A,,32.6754665311488,-16.890583501247804
2039,195,Americana  S,,32.65112191560157,-16.897660902670392
119,CF5,Ribeira da Lapa-Zona 13,,32.70343544591284,-16.953586336580813
1139,CF53,Depois ESCL Seara Velha,,32.70827813908484,-16.974098492250178
1220,CF55,CAM Lombo Chão  1A,,32.70762104641879,-16.97526858164983
1145,CF56,ESCL da Seara Velha,,32.70913044695715,-16.973077917167586
1156,C70,Sítio de João Frino,,32.70554763610215,-16.838628417154318
1157,C71,Sítio de João Frino,,32.705554541108846,-16.838782914784833
1158,C72,Antes de João Frino,,32.704855307443864,-16.83706568367243
1164,C73,Depois de João Frino,,32.70447945744163,-16.83662638738325
1163,C74,Depois RIB João Frino,,32.70563604166123,-16.835989691038595
1165,C75,Antes RIB João Frino,,32.70572495029336,-16.835875437323477
1275,C79,Antes Cabeço João Frino,,32.706202505419945,-16.83129378458319
1030,C86,Sítio das Quatro Estradas,,32.71244021986519,-16.830404141960358
1035,C87,Sítio das Quatro Estradas,,32.711969446286766,-16.830282357627443
1036,C88,Inatel-Quatro Estradas,,32.71501409427219,-16.830691471954726
544,C46,Antes Estação de Serviço,,32.689606430745265,-16.845258826499084
542,C48,Sítio da Eira de Fora,,32.68966182243882,-16.843373971374564
548,C5,Sítio da Madre Água,,32.670920484998156,-16.867670538688742
252,C50,RIB Serrão-Eira de Fora,,32.69133607114376,-16.842818594965298
253,C51,RIB Serrão-Eira de Fora,,32.69134184179963,-16.84263313821312
1607,1063,CAM da Cova do Til  S2A,,32.659571273661186,-16.956234336106295
1292,1066,Caminho das Preces,,32.663209810039355,-16.950671764325037
1289,1067,Escadas Cova do Til,,32.65860509283989,-16.957042445106385
2059,2,PC Povo,,32.64696683246135,-16.906249298116784
2030,1161,R Palheiro Ferreiro  S4A,,32.66493466972083,-16.859436407087188
2002,117,Depois CZ das Courelas  S,,32.66699552561012,-16.948683759363213
2007,1170,Rua João Paulo II  D4A,,32.64050384602874,-16.931047485895128
1511,177B,Apel  T-82,,32.657525903867345,-16.915521313691496
1605,1062,Beco da Lindinha  D2A,,32.658375824765876,-16.887494138992256
1288,1065,CAM da Cova do Til  S3A,,32.660303595964685,-16.95704987250711
1291,1071,CAM da Cova do Til  S5A,,32.655521724488906,-16.959245420441672
1597,1076,TV Campo do Marítimo  D,,32.669727571620676,-16.936825792275098
1657,1078,R C Marítimo  QTA Falcão  D,,32.667487690575854,-16.937285297883825
1655,107A,Estação Rádio Madeira  S,,32.65979224313654,-16.94172908499703
1660,1080,CAM Cemitério  QTA Leonor  D,,32.66630726363706,-16.938750196578294
2178,1098,Pico das Romeiras  D1A,,32.66511688160608,-16.947668435544486
2184,1099,Caminho Casa Velha  S3A,,32.66289325745441,-16.889809576627222
2183,11,AV Mar  E E M,,32.64711340631631,-16.90428407902795
2185,110,Golo  D,,32.67121732464228,-16.93419808640768
2182,1100,Pico das Romeiras  D2A,,32.665166018112124,-16.948542615960804
2179,1102,R Nova Pico São João  D,,32.6546255168309,-16.9221855170123
2020,1162,Rua João Paulo II  D1A,,32.63862058929739,-16.940090794030635
2032,1163,Pinheirinho  T-37,,32.66639300739481,-16.85885652646941
2019,1164,Rua João Paulo II  D2A,,32.63895077815735,-16.938363654579906
2013,1165,Antes Lombo Quinta  C-37,,32.659970232821685,-16.873733811442932
2006,1166,R João Paulo II  BR  D,,32.63987413684512,-16.935933288934237
1293,1070,Escola Madalena  RTP,,32.65717187922579,-16.92818235685899
2008,1171,CAM Novo RIB Santana  S1A,,32.668643103089856,-16.931621460932504
2009,1172,Rua João Paulo II  D5A,,32.641429901123,-16.928731918335
2010,1173,CAM Novo RIB Santana  S2A,,32.66995540167048,-16.930733159792073
2015,1175,Antes Escola do Galeão,,32.67046456476161,-16.929936204207603
2017,1176,Escola do Galeão  D,,32.66978957550529,-16.92891801540542
2014,1177,Galeão-ESCL  T-15B,,32.67022599106405,-16.926913231473947
1830,1029,R Edmund Betencourt  S2A,,32.66695055398707,-16.94568530721513
1214,C167,Achadinha  T-111,,32.68255345013118,-16.853861793795016
1216,C170,R Orquídeas-Abrigo,,32.67024096705948,-16.845306287134434
1223,C170A,R Orquídeas-PSP,,32.67069450379338,-16.846368272389842
1222,C171,ESTR das Carreiras,,32.673935036379014,-16.862104357352035
1224,C172,Borracheiro-Aviário,,32.68795909875862,-16.86805259629773
1218,C174,Carreiras-Bar 21,,32.68537754762024,-16.872833496633504
1176,C101,Freguesia do Santo Serra,,32.72475757829532,-16.820385201537395
1135,C104,Cancela-Zona 23,,32.64831490007074,-16.859953393325878
1133,C106,Antes Hipermóveis,,32.6481437683105,-16.8565483093262
564,654,Bairro Pico Romeiras  D,,32.66454226733801,-16.94878414488187
1450,655,APS Penteada  S,,32.664098859320944,-16.928382576701846
1449,658,Depois Vereda  D,,32.67427759231678,-16.95088284367441
1437,659,Casa Saúde Penteada  S,,32.66425347516614,-16.930546699453405
2234,895,Teleférico Jardim Botânico,,32.66367792369152,-16.89561475014515
179,1341,CAM dos Marcos  T-19,,32.679508915258204,-16.91431068874116
181,1343,Rua Ponta da Cruz  S1A,,32.63476587903307,-16.943424221885387
1978,297,Rochinha  T-32,,32.65478987836797,-16.894602757443707
2049,223,Mobil  Cancela  S,,32.64696418533575,-16.86394540205523
1954,227A,CAM ZN Industrial  S1A,,32.64999302937637,-16.857975340119143
1918,227B,CAM ZN Industrial  S2A,,32.65212113747645,-16.860673101527826
1903,58,APS Virtudes  D,,32.65050031406483,-16.932798795867374
2003,1169,Ladeira Santana  S,,32.667520824827854,-16.930946230210004
2011,1179,Caminho do Terço  D1A,,32.66551589598935,-16.886602121157132
2018,118,Galeão  São Roque  D,,32.67144929610049,-16.929599467774196
2037,1180,LMB Jamboeiro  CAM Corgo  D,,32.673667188415436,-16.932884118650982
2038,1182,CAM Lombo Jamboeiro  41,,32.672840531334096,-16.932643789820453
1828,103,Antes PAV Trabalhadores,,32.65716970286388,-16.941602024776458
351,C271,Bar Borracheiro,,32.69207637215911,-16.865855421278738
350,C212,Serragem de Gaula,,32.68006296010867,-16.826605981535465
1259,C202,Sítio do Boqueirão,,32.69064533235546,-16.833250565457433
1261,C202C,CAM do Boqueirão  3A,,32.69317381677752,-16.827658174089628
1243,C21,Vale Paraíso-Cemitério,,32.67451675069527,-16.854309134692997
1240,C210,Saída do CAM da Faia,,32.68185052062389,-16.82738128373276
1473,370,Estrada da Boa Nova  D,,32.66127107859444,-16.87516193422447
1472,371,Campo da Barca,,32.65232651672956,-16.90162592389607
1467,371A,ESCL Francisco Franco  S,,32.652724207904676,-16.904545089132952
1872,129,Antes da Rampa  S,,32.672858630535245,-16.940870458276983
1866,1295,ESC Ribeiro D Dias  S,,32.66721545306616,-16.8911470450649
1868,1297,Rua 2 QTA Josefina  S1A,,32.656341800536474,-16.928740516302128
1878,13,AV Mar  Alfândega,,32.64712544032021,-16.906243786891437
1875,130,Antes da Quinta,,32.66632571027368,-16.925417751616333
1881,1301,R Padre E Pereira  BC  S,,32.65779010094649,-16.929829606458135
1880,1303,R Padre E Pereira  S,,32.65847690414287,-16.93065816113279
1621,10,Hotel Savoy  D,,32.6439781188965,-16.9204597473145
1795,190,Rua da Bolívia,,32.648976793323264,-16.93776761855899
168,1266,Caminho dos Tornos  D3A,,32.6749496459961,-16.9116191864014
167,1268,Caminho dos Tornos  D4A,,32.67402486265396,-16.91359561220408
175,1272,Largo Levada Corujeira,,32.670947866007076,-16.914352592248825
2498,1381,TRAV Quebradas Baixo  T-16,,32.646561896086716,-16.96365452553458
2500,1306,CAM Quebradas Baixo  D1A,,32.64603219887866,-16.96247586198541
2501,1308,CAM Quebradas Baixo  D2A,,32.6484978797985,-16.961247359363913
2093,1184,CAM Lombo Jamboeiro  D,,32.672034755577585,-16.932591995334175
2092,1185,Rua Clube Choupana  S1A,,32.663716202729155,-16.889839589244474
2094,1186,CAM LMB Jamboeiro  Saída,,32.67093891390185,-16.933396402380367
733,S453,CAM da Ilha  16A,,32.81075473541802,-16.903964053845968
781,C69,Antes de João Frino,,32.70524549072853,-16.840314988931837
70,S397,CAM da Silveira  3A,,32.803796131072716,-16.895703949618763
67,S398,Jogo Bola-Lombo Cunha,,32.82548929906389,-16.90913593669103
65,S399,CAM da Silveira  4A,,32.8037434162096,-16.892850501181048
573,C117,Depois Caniço Shopping,,32.65566694848088,-16.841276154366867
99,CF45,CAM Seara Velha  3A,,32.712276039830016,-16.97271186374958
1140,CF54,Antes ESCL Seara Velha,,32.70829476125195,-16.973988311970555
1144,CF59,Lombo Chão  T-81,,32.70598708481227,-16.97427999959645
259,C52,Casa do Requeijão,,32.69186299516008,-16.841568048586407
258,C53,Casa do Requeijão,,32.69181789537123,-16.84161112366015
1624,1046,Caminho do Pasto  D4A,,32.65238257560685,-16.887181101902687
1630,1047,Caminho do Galeão  S1A,,32.672764443067294,-16.929749513360985
2516,1324,Cota 500  D,,32.67878052839216,-16.943253117890144
2517,1391,Rua dos Louros  ESCL,,32.64813946794831,-16.892561820501353
2520,1292,CAM Areeiro  atrás Aripan,,32.64533661403129,-16.957934037703552
2538,1334,Mercado Abastecedor  D,,32.65277646115885,-16.944571807295524
1356,261,Canto do Muro  S,,32.6552977454054,-16.883442587531263
1773,269,Escola Faial  S,,32.65371247758822,-16.890620736617524
2091,1188,Caminho do Olival  D,,32.66510147812552,-16.926954648526465
2089,1189,Rua Clube Choupana  S3A,,32.664227691294684,-16.89203325407405
2088,119,Antes CZ da Ladeira,,32.66886192638967,-16.94825441862669
2096,1190,Caminho da Quinta  D1A,,32.66240595749412,-16.926210394484094
2104,1001,Ponte Ribeira Grande  S,,32.66473858335324,-16.9361164759207
824,S234,Igreja de São Roque Faial,,32.77062977687747,-16.8568606900863
849,S235,Largo do Massapez,,32.7716217041016,-16.8409938812256
848,S236,Água de Alto-São R Faial,,32.769588470459,-16.8565273284912
627,S17,Achada do Cedro Gordo,,32.74936711766977,-16.872828524815326
599,S177,Reta da Achada Grande,,32.82662438685953,-16.912744390544116
605,S183,Chão da Felpa,,32.82616291244961,-16.9223376018852
606,S189,Reta da Felpa-RIB Funda,,32.819548051418,-16.93351569458423
157,S190,Ponte do Faial,,32.788219575166,-16.85255684186972
156,S191,Antes Capela-RIB Funda,,32.820983258884745,-16.934855081212387
118,S192,Moinhos-Degolada,,32.78547667030038,-16.851411994696427
107,S193,Capela-Ribeira Funda,,32.82180824009452,-16.936317379299794
1123,S104,ESTR Jogo Bola-Escola,,32.825987568946864,-16.908259307805217
1122,S105,Santana  T-56,,32.8056802892878,-16.880742540563844
1148,S108,ESTR do Jogo da Bola  2A,,32.822820415087016,-16.91041097166481
169,1270,Caminho dos Tornos  D5A,,32.67258492657325,-16.913726250068922
1835,1276,Rua Cabrestante  D2A,,32.63638567386292,-16.946364943115757
1834,1278,Rua Ponta da Cruz  D1A,,32.634389632188494,-16.946936136998332
1829,1280,Rua Ponta da Cruz  D2A,,32.63465179765372,-16.943618713354443
1332,1282,Rua Piornais,,32.64038656907078,-16.946510583023233
1351,289,Rua COR Cunha  COR Afonso  S,,32.652418155680806,-16.898425171933628
1350,29,Palácio S Lourenço,,32.6467742919922,-16.9103507995605
1352,290,Antes Pontes Lazareto  D,,32.64917214620609,-16.885617071730692
1349,291,Rua Mãe dos Homens,,32.654128894867924,-16.897679749404304
1347,292,Lar Bela Vista  D,,32.64712554828186,-16.886414922625576
552,292A,Casa Saúde C Pestana  D,,32.647667102833445,-16.88533261471583
2150,292B,Rua Nova Igreja  D,,32.64878296685398,-16.884787829944564
1777,292C,Junta Freguesia S Gonçalo  D,,32.64945813305645,-16.883150580790392
2100,1125,CAM Achada  Antes QTA Lago,,32.65527304778088,-16.919651537744212
2097,1126,Ladeira Santana  D,,32.667747903009094,-16.931114993479518
2103,100,ESTR CMDT C Freitas  D,,32.67116616707501,-16.941929446329627
37,S139,ESTR do Jogo da Bola  3A,,32.822788603663014,-16.904843039107952
8,S146,Faias-Santana,,32.81167516138352,-16.885133227797574
7,S147,ESTR do Jogo da Bola  5A,,32.82175250477818,-16.90988391687825
2062,199,Saída Rua Louros  S,,32.649448292793736,-16.89286965799109
12,S148,R DR Agostinho Cardoso,,32.809016918919546,-16.8842463719048
1997,203,Chão da Loba  S,,32.649874150960855,-16.888994763218488
13,S149,ESTR do Jogo da Bola  6A,,32.82289184118422,-16.910386420967253
15,S150,PSP-Santana,,32.80742068899475,-16.881154271100907
621,S155,Freguesia de São Jorge,,32.82647982545751,-16.906455601714885
1836,1274,Rua Cabrestante  D1A,,32.63779107171273,-16.946403449987795
1317,1246,Caminho Pico Funcho  1A,,32.655124875876496,-16.949315922877535
1311,1248,Caminho Pico Funcho  2A,,32.65385045211578,-16.95012703108102
1304,1250,Centro Cívico-Pico Funcho,,32.65293810444981,-16.95001552918892
1303,1252,Caminho Pico Funcho  3A,,32.65171393693898,-16.950166875248332
1301,1256,Caminho Pico Funcho  5A,,32.64971553074288,-16.950613727641354
1305,1260,Caminho Pico Funcho  7A,,32.64828475062145,-16.951861245501345
2494,1373,CAM Quebradas Baixo  Lar,,32.649402017163936,-16.959113790235342
2519,1322,Vereda Poço Morgado  D2A,,32.6784739671301,-16.9446525853713
1991,309,Rua Lazareto  Socateiro  S,,32.64739142081759,-16.894291654394987
1960,181,Rua Elias Garcia  CRSS,,32.652276769366644,-16.907323497766946
1959,182,Restaurante Boa Vista  D,,32.64779270368767,-16.875618978441597
1958,183,Rua dos Profetas  EEM,,32.64748691814569,-16.90463746185052
1962,184,Estalagem Montanha  D,,32.64645755010741,-16.87213186800067
1963,186,Pista Automodelismo  D,,32.64654707471025,-16.867985829994087
1970,19,Pinga,,32.647607043542095,-16.903686688966516
1972,191,Neves  T-38,,32.64804874713971,-16.87085765691087
2067,202A,ESTR Camacha  viaduto  D,,32.653714833217606,-16.878603187520014
2102,1000,Ponte Ribeira Grande  D,,32.66491619363814,-16.936484043283013
811,S363,Entrada para a Silveira,,32.80950529106894,-16.884749529785154
798,S23,Igreja do Cedro Gordo,,32.75347825979901,-16.872258895580153
797,S230,Depois MIRDR Palheiros,,32.77320973759744,-16.85403963438335
64,S4,Achada Marques-Cemitério,,32.80710129808406,-16.908763802703177
617,S159,ESTR do Farrobo  2A,,32.82950362041882,-16.90607339323373
616,S160,Lombo do Curral-Santana,,32.79763673919734,-16.87720520913912
624,S162,Feiteira do Nuno,,32.79489750636291,-16.875937796563125
628,S163,CZ ESTR do Farrobo,,32.83195586714723,-16.908379212231303
625,S164,CZ para Feiteira Cima,,32.794783413898635,-16.871744346423206
631,S165,ESTR do Farrobo-Bar,,32.83126429651886,-16.909777564175624
601,S175,Achada Grande-Bar Matos,,32.82709766877638,-16.911853332843908
603,S181,Felpa-Tanque de Rega,,32.8259052195743,-16.917997985311224
1628,105,PAV dos Trabalhadores  S,,32.65815888428181,-16.942096275792153
2169,1103,CAM do Palheiro  S2A,,32.65938290969225,-16.880088517421413
2237,S16,Caminho Chão-Fonte,,32.81619169740277,-16.888952174882114
1316,1361,Rotunda do Amparo,,32.64697138613278,-16.94199721624578
2455,1359,CAM Ponte  Centro Saúde,,32.66395244924844,-16.936250472879923
2466,1298,Final Rua DR Barreto,,32.65017833524938,-16.935327530411598
1995,205,ESTR Conde Carvalhal  S1A,,32.65114729711446,-16.887163482201235
1992,206A,Centro Inspeções-Zona 23,,32.65701925559995,-16.88340976342595
2057,207,ESTR Conde Carvalhal  S2A,,32.6511728738971,-16.886218443504198
2056,208,Saída R Caridade Pestana,,32.65520367011101,-16.877018741737054
2050,209A,Antes Igreja S Gonçalo  S,,32.65114274558407,-16.88334965767271
2069,1012,CZ Pico São João  D,,32.653901812782806,-16.923250047112674
1827,1030,Caminho da Ladeira  D1A,,32.66573397542572,-16.942137636119664
646,S533,Cemítério-Zona 14,,32.691735657650845,-16.774632367851112
653,S535,Estalagem DR-Zona 26,,32.73042133059068,-16.887949735108734
72,S400,Farmácia de São Jorge,,32.8263601217007,-16.90755182072783
76,S401,CAM da Silveira  5A,,32.801748396484314,-16.892344539758493
79,S403,CAM da Silveira  6A,,32.80255810042353,-16.889958009261754
77,S406,Fajã da Murta  1A,,32.76514692119976,-16.876041790054984
610,S185,Reta da Felpa,,32.823542305546276,-16.926390205102404
112,S205,Arco S Jorge-ER 101  3A,,32.823872510081515,-16.943984854637808
1057,S207,Vereda Beira-Arco S Jorge,,32.82481041752692,-16.94322729406198
113,S209,Depois da Vereda Beira,,32.826423834219455,-16.94203477367595
88,S211,Arco S Jorge-ER 101  4A,,32.82780099592669,-16.942033331674914
1543,1225,Travessa do Valente,,32.63951307094418,-16.927276795062753
2249,S18,Caminho Chão-Garagem,,32.81903335100613,-16.889748417880817
2193,S515,Caminho Chão-Escola,,32.81414711228624,-16.887775402754176
2192,S517,CAM Chão-Largo Pinheiro,,32.812326751623836,-16.886437361162436
1813,S362,Pinheiro  3A,,32.81216947997116,-16.88715592896915
2499,1304,TRAV Quebradas Baixo  D,,32.64543294224188,-16.963526581072873
2101,1002,Jardins do Leme  D,,32.662942280851624,-16.934806096883563
2099,1003,Jardins do Leme  S,,32.66321019746089,-16.934860148275366
2098,1004,CZ Beco da Escola  D,,32.66115725833855,-16.931819685482882
2087,1005,CZ Beco da Escola  S,,32.66139027456981,-16.932088970975077
2086,1006,CZ Cine Teatro  D,,32.65980077300702,-16.92943813401099
2085,1007,CZ Cine Teatro  S,,32.65970115111607,-16.929118625668647
2080,1008,CZ Beco da Madalena  D,,32.657451564717,-16.926305707772045
2074,1013,CZ Pico São João  S,,32.65397979437315,-16.923211111435112
2082,1018,Capela Santo Amaro,,32.65780146874011,-16.944136026717672
1833,1028,Beco da Pinheira  D,,32.66646196657017,-16.943188731340157
1062,S439,Igreja da Ilha,,32.81122493434032,-16.91151491523124
209,S445,Saída para Achada Marques,,32.808080469904496,-16.909113232279662
208,S447,CAM da Ilha  13A,,32.8096501347293,-16.907297274231126
243,111C,CAM Velho Chamorra  Lotinha,,32.665662529071184,-16.949373095090255
226,S285,Cruzinhas-Zona 27,,32.75946755034913,-16.87788932689238
859,S246,Achada do Folhadal,,32.76303925483856,-16.86192712478918
860,S25,Depois Igreja Cedro Gordo,,32.75519455549174,-16.870637608061486
855,S252,Levada das Furnas,,32.757464914976104,-16.86781390736521
843,S256,Lombo de Baixo  1A,,32.7837791442871,-16.851448059082
831,S268,Lombo de Cima  2A,,32.77202687532211,-16.862656447958095
30,S280,Depois da Fajã Nogueira,,32.75372205705378,-16.877522436014395
27,S283,Sítio da Fajã Grande,,32.75586582576079,-16.87915092930024
32,S287,Lombo de Cima  1A,,32.76816152549697,-16.868766432133334
34,S289,Lombo de Cima  2A,,32.77011991656519,-16.865227297323123
35,S293,Lombo de Cima  4A,,32.77214703276222,-16.862684360642497
2492,S276A,CAM Fajã Grande Cima,,32.757696510276126,-16.87886160263927
1892,478,Final CAM D João,,32.65990062252243,-16.916845798320818
1893,479,Rua da Pena,,32.655893083691836,-16.90284468010539
1899,48,Hospital DR Nélio M  D,,32.64831179458439,-16.92355518918765
1898,480,Depois CAM D João,,32.66083765463188,-16.917356232659074
1919,486,Rua Arc D Aires  D2A,,32.65880101185813,-16.918251793712315
1935,487,R Nova Pedro J Ornelas  S,,32.65778104761475,-16.904488955044325
1920,488,Rua Arc D Aires  D3A,,32.657828801817864,-16.917723521665426
1941,49,STO Hellier,,32.637008886228905,-16.937954200607685
2073,1009,CZ Beco da Madalena  S,,32.65807820395488,-16.926949292970647
2072,101,Quinta do Esmeraldo,,32.656142170590485,-16.941101381876763
2071,1010,CZ Azinhaga Ausentes  D,,32.65647896873573,-16.924978134201705
2070,1011,CZ Azinhaga Ausentes  S,,32.6565452983628,-16.92489043513691
1779,1031,R Edmund Betencourt  S3A,,32.666010295172526,-16.945200516908173
174,1032,Caminho da Ladeira  D2A,,32.66473097869257,-16.940609113266486
207,S449,CAM da Ilha  14A,,32.810519589373754,-16.90648137654333
737,S369,Pinheiro  2A,,32.81242789088159,-16.89072638052777
674,S54,Arco S Jorge-ER 101  8A,,32.82281043158704,-16.946480706337454
697,S541,Felpa-Vacaria,,32.8259217020241,-16.923801406753608
696,S543,Estação de Machico,,32.721023816975844,-16.768498358035455
694,S547,Lombo Galego-Candelária,,32.773884580639645,-16.872635115930215
693,S549,ESTR Jogo Bola-Escola,,32.82540496290403,-16.90911322074705
698,S55,CAM do Serradinho,,32.773324627919976,-16.852392262571303
903,S334,Centro de Machico,,32.717472076416,-16.7672157287598
905,S336,Aeroporto-Zona 35,,32.689502919691044,-16.78203468715089
912,S339,Antes Capela STO António,,32.8067092895508,-16.8720207214355
911,S34,Arco São Jorge-Miradouro,,32.82671053998677,-16.954029816150314
913,S341,Santo António-Capela,,32.80464423169281,-16.87142732246885
907,S347,CZ Saída Santo António,,32.79563123549823,-16.87122596029004
863,S349,CAM Feiteira de Cima  1A,,32.7921257019043,-16.873025894165
924,S35,Achada do Folhadal,,32.76306678720021,-16.861857478920182
812,S365,Caminho Chão-Largo,,32.81206060061501,-16.886315052624663
813,S367,Pinheiro  1A,,32.81230948562324,-16.887728614864564
820,S370,ESTR do Farrobo  5A,,32.828836541281625,-16.905636495306393
47,S417,CAM da Ilha  1A,,32.81377928281437,-16.902888746244628
46,S419,CAM da Ilha  2A,,32.811357742271106,-16.902248841689527
45,S42,Arco S Jorge-ER 101  2A,,32.82487549021091,-16.947428654270787
50,S421,CAM da Ilha  3A,,32.81101934015876,-16.903251691019907
1923,505,Caminho Ferro  T-27,,32.6645317077637,-16.9070796966553
1922,506,ESCL B Perestrelo  D,,32.65980205358278,-16.91393732046472
1925,508,Depois CZ LEV STA Luzia  D,,32.66143172681637,-16.914446989345425
1926,509,Saída R ENG Amaro Costa,,32.659715481250934,-16.903954822052064
1927,51,Hotel Baia Azul  S,,32.6363372802734,-16.9405555725098
559,510,Igreja I C M  D,,32.661910934030516,-16.915057549459952
1778,1033,CAM Igreja Velha  S1A,,32.673016979885645,-16.921818442184033
4,1050,Rua da Boa Nova  D,,32.65990215575371,-16.881932626947613
700,S553,ESTR Farrobo-Fontenário,,32.83120252147969,-16.911262938460283
692,S58,Cabanas-Restaurante,,32.826008439949916,-16.938443741628873
704,S59,Terreiros-Zona 27,,32.77637472071045,-16.848076571260382
677,S63,Depois dos Moinhos,,32.78111758420557,-16.846776762965554
676,S64,Capela-Ribeira Funda,,32.82176577187434,-16.936409141618785
816,S373,Silveira-STOP,,32.808423272001164,-16.887567764525038
31,S286,Antes Igreja Cedro Gordo,,32.75512758626044,-16.870854665079754
52,S425,CAM da Ilha  5A,,32.80721248443749,-16.906206284867853
2187,1120,Depois Escola do Galeão,,32.67047381862648,-16.929875788768886
2235,1121,Rua Alto Pico  Achada,,32.65175966301464,-16.917729215521383
2459,1288,CAM Ponte  Centro Saúde,,32.663901035806795,-16.936349110462064
2462,1296,Cemitério STO António,,32.66780729533299,-16.940286894474564
2239,1307,R DR Pita-Clube Ténis,,32.645780612728004,-16.92713772743041
2246,1311,CAM das Lajinhas  S2A,,32.678885202384,-16.904598533159525
1611,1313,CAM das Lajinhas  S3A,,32.679802776760326,-16.902238682001006
1612,1228,CAM das Lajinhas  D1A,,32.67983913153798,-16.902327294603737
1609,1230,CAM das Lajinhas  D2A,,32.678917767100124,-16.90464749582683
2248,1232,CAM das Lajinhas  D3A,,32.679718587952976,-16.905782020716895
2247,S14,Escola do Caminho Chão,,32.813827576774166,-16.887323314810445
2191,891,CAM das Voltas  Escola,,32.66439857325925,-16.894342580539984
2190,C21B,Camacha Shopping  T-129,,32.67544054351769,-16.852670538483277
2228,919,Cemitério São Gonçalo  S,,32.65040274793613,-16.882142945541567
1287,925,CAM Bica Pau  Fonte  S,,32.651981706083326,-16.8813740434335
1297,937,CAM Bica Pau  Curva  S,,32.65347383503462,-16.880461221627588
1298,947,CAM Bica Pau  Final,,32.65420393329638,-16.879047006599546
1800,C319,Caminho da Portela  2A,,32.686598729935945,-16.85830983145918
1363,1034,Rua das Virtudes  D2A,,32.64976364921703,-16.929685807787994
675,S65,Antes da Degolada,,32.785445376198055,-16.851322487549947
680,S66,Depois Capela-RIB Funda,,32.821035148125745,-16.935013140667706
681,S67,Ponte do Faial,,32.788399235013664,-16.852319665069157
682,S68,Reta-Ribeira Funda,,32.819534114782904,-16.933582579073608
683,S69,Centro de Saúde Faial,,32.79105025676946,-16.853332314673864
1063,S7,Montado Pereiro-Poiso,,32.70797108739937,-16.892112637348614
688,S70,RIB Funda-ER 101,,32.82094263499905,-16.931474548493078
689,S71,Depois Centro Saúde Faial,,32.79173806806767,-16.853653186151316
687,S72,Reta da Felpa-RIB Funda,,32.823529330301966,-16.926323039067004
775,S75,Covas-Faial,,32.7896308898926,-16.8548736572266
918,S313,Lombo Galego-Escola,,32.77711622680682,-16.863641166685557
932,S319,CAM do Lombo Galego  1A,,32.77586442412287,-16.870345082208882
931,S32,Igreja do Arco São Jorge,,32.82658520031378,-16.95611684947071
930,S321,Lombo Galego-Ribeiro,,32.77518976012994,-16.872757188504103
928,S322,Lombo Galego-Escola,,32.7770697521794,-16.863600586318103
916,S324,Fazenda-Lombo Galego,,32.783077189217416,-16.86028219609068
914,S326,Saída do Lombo Galego,,32.78446558477985,-16.857021592132465
909,S327,CZ para Santo António,,32.795579963621215,-16.871194985441917
1271,C159,REST Casa da Avó,,32.678170247886165,-16.852294837461532
1804,C321,Caminho da Portela  3A,,32.68692392938469,-16.86071875274827
1805,S368,CAM da Silveira-STOP,,32.8084887712927,-16.887608175954952
1806,S366,Pinheiro  1A,,32.810243869063484,-16.8896179115733
1807,S364,Pinheiro  2A,,32.81238631999013,-16.89068065264424
1788,492,Rua Arcebispo D Aires,,32.655783127776964,-16.914986082403562
1794,804,Rua Nova Alegria,,32.651324230818496,-16.90037688319193
1322,1036,Caminho STA Quitéria  D,,32.66211627626952,-16.95280380873928
1321,1037,CAM Igreja Velha  S3A,,32.67494708448092,-16.922896052378896
217,S48,Arco S Jorge-ER 101  5A,,32.826461355285254,-16.94209080005002
190,S519,Depois da Achada Marques,,32.799387499839796,-16.9089574629029
875,S386,Estalagem DR-Zona 22,,32.730396776818004,-16.888015903268826
873,S387,CAM da Silveira  7A,,32.80587027887747,-16.896597224469396
872,S388,Antes do Bar Faísca,,32.74027565701603,-16.885421534022637
792,S379,CAM da Silveira  3A,,32.802491361244584,-16.89006512139176
17,S39,Antes da Antiga Escola,,32.76623686334217,-16.85819850334114
16,S390,Arco S Jorge-ER 101  9A,,32.82202345231328,-16.94796270662305
23,S391,Silveira-Final,,32.805013838452965,-16.900608900884336
42,S392,Felpa-Vacaria,,32.8259175441008,-16.923693421700623
44,S394,Depois ENT Penha Águia,,32.782700267812615,-16.847465101451622
69,S395,CAM da Silveira  2A,,32.805796259154675,-16.89661043541529
68,S396,Lombo Galego-Candelária,,32.77394366604413,-16.872670839872512
1789,1329,CAM Tornos  LG LEV Corujeira,,32.6709522346379,-16.914308941068516
1816,1335,Caminho dos Tornos  S3A,,32.674943915765226,-16.911551310839236
180,1347,Rua Cabrestante  S1A,,32.6365289114181,-16.946376736326044
178,1349,Rua Cabrestante  S2A,,32.637741485409,-16.946312499889526
1822,1286,Descida Para ROT Max,,32.66162720747431,-16.928094620495873
1819,1357,Igreja Santo Amaro  S1A,,32.65957517695478,-16.948094054153717
1329,228,Socipamo  D,,32.6709899902344,-16.9164390563965
1318,994,Beco Cascalho,,32.661003333919865,-16.944888782801723
1999,518,Monte  Pinheirinho  D,,32.666157070991126,-16.91644406827517
1327,1042,Caminho do Pasto  D2A,,32.65300726683557,-16.883699083112145
673,S537,Depois do Bar Faísca,,32.74025784501788,-16.885363654302147
695,S545,Entrada para Penha Águia,,32.78273038488643,-16.847388001161818
868,S53,Miradouro dos Palheiros,,32.77470052213709,-16.852476450674718
51,S423,CAM da Ilha  4A,,32.81085501761416,-16.904029146771364
2236,S511,Caminho Chão,,32.81898420158664,-16.889792736565813
2230,S513,Caminho Chão-Fonte,,32.816089630127,-16.8889675140381
1302,1254,Caminho Pico Funcho  4A,,32.650692972161856,-16.950068061941714
1300,1258,Caminho Pico Funcho  6A,,32.648970982028686,-16.950978437664038
1306,990,Cemitério São Martinho,,32.65002352793887,-16.943335906890066
1314,S167,Entrada para Vigia,,32.83080171681952,-16.91309766195608
1309,185,Graça  T-11,,32.67486529586344,-16.949430150176788
2465,945,ER 103  Depois Lombos,,32.678997993154525,-16.906855387970644
2472,675,ESCL São Martinho  T-04 e 83,,32.65053069604312,-16.94434397591607
2491,C192A,Centro Saúde do Caniço,,32.6521541742785,-16.847774833469078
2132,521C,Rua Cidade Santos  S3A,,32.66567670664422,-16.915482161523133
5687,407B,Antes Miradouro,,32.66068809306327,-16.874647254326582
5762,617A,Beco do Cano,,32.66155350325842,-16.922392226798436
53,S427,CAM da Ilha  6A,,32.81052409744572,-16.906560565186002
59,S429,CAM da Ilha  7A,,32.8096472900586,-16.90736442767667
58,S43,Centro Saúde São R Faial,,32.76832056101631,-16.857264735655
60,S431,Escola da Ilha,,32.808609753080404,-16.909140941832494
57,S433,CAM da Ilha  8A,,32.80867808962939,-16.90958626008853
54,S437,CAM da Ilha  10A,,32.81034726937934,-16.91155759918874
1623,1045,Caminho Novo Cova,,32.673494506616535,-16.926813259225735
1651,1054,Caminho Casa Velha  D1A,,32.66296127279641,-16.889808258100445
1653,1056,Caminho Casa Velha  D2A,,32.6618472228259,-16.89011167125292
1285,1058,Caminho Casa Velha  D3A,,32.66046905143144,-16.889983242260392
1284,1059,Rua das Virtudes  S,,32.6480407714844,-16.9302597045898
2471,1294,Rua da Pedra Sina,,32.65246684137783,-16.888557415819847
2475,1302,CAM Três Paus  Viana  D1A,,32.66897455385778,-16.95559591113039
2495,1375,CAM Quebradas Baixo  Frut,,32.64858981187888,-16.961244955481504
2496,1377,CAM Quebradas Baixo  S3A,,32.64609347050497,-16.9625258221487
2497,1379,TRAV Quebradas Baixo  S,,32.645455516968504,-16.96343606211228
1343,285,Rua da Rochinha,,32.65194839297887,-16.90098291967412
1344,286,Rua Lazareto  D1A,,32.648080430677055,-16.88828725308088
1345,287,Rua COR Cunha  Entrada,,32.65264808030046,-16.89987660715015
1966,193,CZ R Nova Alegria  S,,32.65100544742266,-16.90003372688747
2066,201,Antes Chão Loba  S,,32.65074474549747,-16.89105034675481
884,S79,Antes da Diferença,,32.78617615516006,-16.857587504460422
881,S81,ENT para Lombo Galego,,32.78446968005536,-16.857365623193864
880,S82,Achada Grande-Bar Matos,,32.82728488124136,-16.91130628780017
885,S83,Depois da Diferença,,32.783699319400625,-16.8582573668845
893,S87,LEV Serra Faial-Zona 28,,32.789094013408054,-16.860936697994912
1990,307,Forca  S,,32.64760370210634,-16.896703540527337
1989,308,Rua Azevedo Meneses  D2A,,32.659162154766385,-16.894115032468907
1964,187,Rua da Infância,,32.64956392566513,-16.903514959398215
1965,188,Mobil  Cancela  D,,32.6470349997539,-16.86396949271933
1973,194,Antes CAM das Neves  D,,32.64870330207149,-16.867664222371967
2040,196,Antes Miradouro Neves  D,,32.64960828141996,-16.87198404463858
2063,198,Depois Miradouro Neves,,32.651244464025396,-16.875328448719326
2061,1A,Cais,,32.64662493840344,-16.909998516256287
2060,200,Antes CZ Bica Pau,,32.65471441065391,-16.8780024630158
1994,202,Estrada Camacha  17  D,,32.65093059119126,-16.87790003331846
925,S316,CAM do Lombo Galego  1A,,32.77585210393031,-16.870279316895534
915,S325,Lombo Galego-Término,,32.77220434593002,-16.87670932204782
401,625,CAM Lombo Aguiares  D3A,,32.67772586118732,-16.938084828189293
1159,C78,Depois Cabeço João Frino,,32.7062530517578,-16.8315525054932
1012,38,Capela do Amparo  D,,32.6445846557617,-16.9432144165039
1027,38A,CAM E Velho  Madibel  S,,32.6453056335449,-16.9412326812744
265,C132,Moinhos-Chão Lagoa,,32.66488439448784,-16.83708772930154
517,956A,Beco Corgo  S,,32.67953808691049,-16.939058994599304
520,958,CAM Lombo Aguiares  S4A,,32.67773255115023,-16.938167501347355
519,959,CAM Velho Quinta  S1A,,32.66336705532684,-16.926086369803194
516,960A,Escola LMB Aguiares,,32.67570222596389,-16.938545923103526
345,C267,CAM Ribeirinha  2A,,32.67298252577864,-16.83922957961464
346,C268,RIB Serrão-Escadas,,32.69380693793399,-16.85015760810724
1256,C202A,CAM do Boqueirão  1A,,32.691239172021,-16.831731540985096
1235,C207,ENT para ESTR de Gaula,,32.675946110958094,-16.80466320514359
1238,C211,ESTR Gaula-Furtados,,32.673975368069165,-16.80776385989
1553,12,Hotel Reid's,,32.64172025105334,-16.92406340873699
2294,1261,Caminho do Olival  S,,32.6652153058898,-16.926913058279617
2281,1263,Igreja Choupana  S,,32.666348004911086,-16.892180185883927
2275,1265,Rua Clube Choupana  S4A,,32.665192150755374,-16.89377781318598
2268,1267,CAM Igreja S Gonçalo  S,,32.648989260863736,-16.88187507120337
1684,866,R Caridade Pestana  D1A,,32.656606232771374,-16.874468269192324
1053,876,Depois das Casas,,32.68450237654185,-16.954008608145674
1673,878D,CAM Três Paus  Viana  D1,,32.66878226868782,-16.955430162714585
1680,878G,CAM Três Paus  Ponte  D,,32.670464257809705,-16.951391028753715
636,S276,Cruzinhas-Zona 26,,32.759454868205815,-16.87799182350441
635,S277,Depois da Longueira,,32.77854647190253,-16.846415669030186
633,S278,Sítio da Fajã Grande,,32.755803895014054,-16.879375162723623
575,C122,Sítio da Pedra Mole,,32.65747422409792,-16.8369149961337
594,C123,Tecnorocha-Pedra Mole,,32.65512466414103,-16.835643282050547
629,S169,ESTR do Farrobo  4A,,32.8291244506836,-16.9133396148682
614,S172,Levada de Alto,,32.78665713299768,-16.860003630013786
600,S176,ENT para Lombo Galego,,32.78440921121626,-16.857303234561854
597,S179,Felpa-ER 101  1A,,32.825708055862194,-16.916022485497024
108,S199,Cabanas-Restaurante,,32.825832167838314,-16.938170959971966
109,S2,ENT para Achada Marques,,32.80798211835867,-16.909246728073764
93,CF48,Estrela-Zona 40,,32.6892700195313,-16.9539909362793
120,590,CAM São Roque  Escola,,32.66764827048649,-16.921566206291484
142,593,CAM Saltos  Oficina,,32.66916053069982,-16.916823711179518
141,593A,Rua Cesar Rosa,,32.66997885179448,-16.91600841116575
148,598,Rua Cónego Andrade,,32.662514058093954,-16.922570188376298
154,599,Portada STO António  S1A,,32.67075769965291,-16.907024111311337
944,640,Rua Paiol  D,,32.65410275634896,-16.91901805187816
1515,152,Esfera,,32.64866291637354,-16.906560592643842
890,S90,Entrada para Vigia,,32.83075673524524,-16.913006004163552
879,S92,ESTR do Farrobo-Bar,,32.831258723460934,-16.909683851357613
878,S94,CZ Estrada do Farrobo,,32.8319320678711,-16.9084510803223
874,S95,Feiteira do Nuno,,32.79494661487669,-16.87599786723508
867,S97,Lombo do Curral-Santana,,32.797829148265514,-16.877119070020317
865,S99,Antes ENT ESCL Santana,,32.7994232177734,-16.8774032592773
634,C110,Reta da Azenha,,32.65372411840279,-16.844729667020715
1173,S110,ESTR do Jogo da Bola  3A,,32.821979476828396,-16.910032863364663
530,C68,Depois de João Frino,,32.70526122621038,-16.840626212560828
474,C149,Biofábrica,,32.671426643019586,-16.847772125056835
1883,717,Vereda  CAM E Serrado  S,,32.67634981717443,-16.95054174158645
1639,720,Travessa Tanque  Maxmat,,32.65819635178103,-16.95037516861308
1638,721A,Álamos  Saída CAM Bróteas,,32.66541494986793,-16.934700368769064
1641,727,Igreja dos Álamos  D,,32.66526868357323,-16.931899347362677
1643,728,CAM Poço Barral  VW  D,,32.65642465838157,-16.943142301548228
1648,730,CAM Pilar  QTA Esmeraldo,,32.65559422872655,-16.940438330943458
2477,1302B,Viana  T-50,,32.66684413776053,-16.956129595776343
2478,1302C,Rua Nova Três Paus  D1A,,32.665894622963066,-16.95464286756978
2479,1302D,Rua Nova Três Paus  D2A,,32.663782398630055,-16.955025503240865
2480,1371,Rua Nova Três Paus  S1A,,32.66382921271567,-16.95494386076744
2490,C266A,Vereda Tia-RIB Serrão,,32.69454597886238,-16.853066242261637
2493,S283A,CAM da Fajã Grande Cima,,32.757755392220766,-16.878750792653065
2503,1389,Cota 500  S,,32.67869877190667,-16.943435453446895
2504,1385,Vereda Poço Morgado  S1A,,32.678225523720805,-16.944484885352583
2505,1387,Vereda Poço Morgado  S2A,,32.67877370782005,-16.943972231684707
432,390E,CAM São João Latrão  D2A,,32.66493362263403,-16.88152271451757
431,390F,CAM São João Latrão  D1A,,32.66438586171765,-16.881440078838754
442,396,ESCL Palheiro Ferreiro  D,,32.6639556884766,-16.8654079437256
961,859,Areeiro  S,,32.64368423661035,-16.954813401652242
959,860,Escola de STA Rita,,32.6503295039699,-16.958989598916144
974,589A,Rotunda  Fundoa Cima  D,,32.674532477673914,-16.917340953893792
261,C220,ESTR Gaula-Miradouro,,32.674914010922585,-16.821197339466995
512,C146,ENT TV João Cláudio,,32.67196402826448,-16.849225834499478
469,C147B,R Orquídeas-Abrigo,,32.670186922779756,-16.845344353078282
455,935,Balancal  T-33,,32.65613404626095,-16.873728946290043
1219,C177,Carreiras-Chão Casas,,32.68326183499734,-16.872914797201442
1191,C182,Carreiras-LEV Serra Faial,,32.675297628719036,-16.86347163122291
1262,C202B,CAM do Boqueirão  2A,,32.69301128580802,-16.82955849583206
1257,C202G,Capela-Fonte Almocreves,,32.69049142597192,-16.822761445696347
1563,1208,ESCL Ângelo A Silva  D,,32.659976440592104,-16.908601450426797
1738,567,Antes Largo da Fonte,,32.67566249147474,-16.904977850880112
1769,812,Largo Alecrins  D,,32.65568262028908,-16.956531910178406
2425,813,Central Barreiros  S,,32.64544538676703,-16.929585983886348
2260,814,Alecrins  D,,32.657147383675195,-16.95512808205992
1049,815,Redondo Barreiros  S,,32.64368655216061,-16.929090093888245
2378,78A,Estação Rádio Madeira  D,,32.65970239200916,-16.941707907928325
2534,1158B,Curral Romeiros  D1,,32.67598946041858,-16.891248533942512
5661,1075A,CAM STA Quitéria  90  S,,32.66299352604437,-16.95427948643157
3,1181,Caminho do Terço  D2A,,32.664728482797145,-16.88590318617153
2,1187,Rua Clube Choupana  S2A,,32.66379791437979,-16.89137172197996
937,679,TV Levada São João  S,,32.64841953317588,-16.92135130600195
942,681,Beco Joaquim Carlos  S,,32.650890322500636,-16.923227334265682
945,641,CAM Terça  Antigo Término  S,,32.6766709988036,-16.920403452137986
977,923,ZN Industrial  T-38 e 39,,32.65145718756846,-16.86319429493604
297,C233,ESTR Gaula-Miradouro,,32.67488475692913,-16.821459788529804
299,C234,Antes Centro Saúde Gaula,,32.67136706171591,-16.815357226013766
296,C235,ESTR Gaula-Escola,,32.674522406568435,-16.823951563343403
513,956,LMB Aguiares  Convento  S,,32.67872645952727,-16.93859754455426
1090,991,CAM Curral Velho  S3A,,32.679269051303805,-16.943118984455207
1717,808,CZ Quebradas  D,,32.65008162719786,-16.957176722334456
2390,819A,Rua do Brasil  S1A,,32.64519688234411,-16.933448373774365
2189,C111A,ESTR João G Zarco-Nestlé,,32.6527976989746,-16.8463535308838
1270,992,Bombeiros Voluntários,,32.654012584570324,-16.901130682161188
2226,C315,Caminho da Portela  1A,,32.68252489231341,-16.84702172558667
2233,C317,Achada Urzes-CAM Portela,,32.68569028951039,-16.852809365978256
2077,1016,Sul Bairro STO Amaro  S,,32.659129969446795,-16.948337590505425
739,C93A,Achada do Barro-Escola,,32.7254333496094,-16.8313312530518
712,CF11,Saída do Túnel-C Freiras,,32.72185010617729,-16.962847151327313
395,621A,CAM Lombo Aguiares  ESCL,,32.6756691982716,-16.938515437503014
394,622,Casa Saúde Penteada  D,,32.66422164192155,-16.93063644285521
378,635,CAM Igreja Velha  S,,32.67117322381655,-16.92137055235604
1072,537,Antes CZ LEV STA Luzia  S,,32.66149356739852,-16.91431033779363
978,922H,Escola Boliqueime  D,,32.67457426015121,-16.94922430486431
985,836,Ponta da Laranjeira  D,,32.64685654469333,-16.965953811498373
539,C22,Vale Paraíso-Oficina,,32.674199506063836,-16.857494486968424
262,C221,Depois Centro Saúde Gaula,,32.671429764501696,-16.81603177472376
2298,1251,Caminho da Quinta  S2A,,32.66078374153697,-16.923855364839792
2295,1253,Caminho da Quinta  S3A,,32.6611517342732,-16.924682480528922
2293,1255,Caminho da Quinta  S4A,,32.66154467580871,-16.925833390853448
1811,811,Escola da Lombada,,32.6523343217724,-16.962063491504473
1797,893,Rua Brito Câmara  La Vie,,32.64733910734171,-16.91443906167762
89,CF4,CAM Seara Velha  1A,,32.71158560308219,-16.973278089577658
135,610,CAM Água Mel  D2A,,32.66851326167358,-16.927218683772416
134,611,Antes Serragem  Babosas,,32.67096813967297,-16.89903995235596
1037,C89,Inatel-Quatro Estradas,,32.71495910892898,-16.830571000275842
1045,911,ENT Três Paus Viana  S,,32.680143493000536,-16.953103160879827
1028,917,Chamorra Casas,,32.6883277893066,-16.951717376709
986,922F,CAM Barreira  D5A,,32.676663277134814,-16.94998277658879
988,929,R Caridade Pestana  S2A,,32.656398622013064,-16.875632808890757
438,836B,Ponte da Ribeira  Pizo,,32.6527709960938,-16.9645900726318
448,837,Alecrins  S,,32.65719809255031,-16.955074519698055
546,84,Depois CAM Velho Chamorra,,32.662270398807856,-16.947914866454788
526,C63,Sítio da Levada do Pico,,32.69798171706038,-16.838123960248602
525,C64,Curral Velho-LEV do Pico,,32.701042619414785,-16.839435395352858
288,C223,ESTR Gaula-As Levadas,,32.6696241184006,-16.816832908936316
289,C225,ESTR Gaula-Mini Mercado,,32.670813329302504,-16.817981959110085
295,C230,ESTR Gaula-Bar Santos,,32.67040645147288,-16.81774304539298
292,C231,ESTR Gaula-Escadas,,32.67614832653999,-16.82108308641503
463,949,CAM Terra Chã  Beco  S,,32.665107105895444,-16.940112203933914
1079,981G,Chamorra Barreira,,32.6836937254057,-16.94917061546853
1077,981I,Escola Boliqueime  S,,32.67469894414143,-16.949193377407017
1076,981J,Barreira  91,,32.68450554341135,-16.94900873836965
1756,563,Monte  Tanque  S,,32.67333855969555,-16.91106022018774
1693,872,R Caridade Pestana  D4A,,32.656083245877156,-16.876492105925905
87,CF36,Bar Serafim-C Freiras,,32.72182830269176,-16.964028140741082
85,CF38,Entrada Túnel C Freiras,,32.72160866228851,-16.96283088962183
84,CF39,Terra Chã-Ponte,,32.713861955346864,-16.970834449149706
121,608,CAM Água Mel  D1A,,32.67099070632659,-16.926307120508834
440,393A,Centro de Inspeções  S,,32.6578140258789,-16.8836250305176
446,394,Campo Futebol 1-Maio  D,,32.66579566035874,-16.865845587622474
966,673E,Rotunda Tecnopolo  S,,32.65996269768053,-16.927686197537547
975,736B,Rua DR Barreto  D2A,,32.65259736238951,-16.93493928571942
528,C66,Subida para Curral Velho,,32.7027212971336,-16.8401458402353
283,C228,Gaula-Casas Novas,,32.672511296292875,-16.817929065477053
291,C23,CZ da Padaria,,32.67649125356873,-16.851789998403536
507,955,Atrás Cemitério STO António,,32.66945362783806,-16.93954791194299
503,963,CAM Velho da Quinta  S3A,,32.66575242863484,-16.924676224836134
492,977,Casa Velosa  Boliqueime  S,,32.67104279639882,-16.948858228574178
493,979,Bar Angola  S,,32.67169558166983,-16.947913949199545
1092,981D,CAM Barreira  S3A,,32.680332804529044,-16.949325406672862
1086,981F,CAM Barreira  S4A,,32.68263567400343,-16.949467411632536
1272,C260,Apartamentos-Pedra Mole,,32.657076091677396,-16.83694692534092
343,C261,CAM Ribeirinha  1A,,32.66979306465709,-16.839442867699862
342,C262,Igreja STA Cruz  T-113,,32.6884994506836,-16.792989730835
341,C263,Capela-Ribeirinha,,32.67065701208077,-16.839648162270414
340,C264,Rajão-Mesas,,32.69017477401785,-16.868340115401665
339,C265,Ribeirinha-Muralha,,32.671406271922926,-16.840825897145116
2460,978,Quinta do Leme 978,,32.66192852756029,-16.935346788783086
1610,971,Monte-Lajinhas,,32.67908604299954,-16.90058205899507
1796,1331,Caminho dos Tornos  S1A,,32.6725524752346,-16.91368158817613
1815,1333,Caminho dos Tornos  S2A,,32.67387680778489,-16.9137113119536
10,S144,Caminho Chão-Santana,,32.81466916862006,-16.887143635885487
160,C111,Antes Centro Saúde Caniço,,32.651266115909316,-16.84813118804784
571,C12,Antes da Madre Água,,32.670866462726586,-16.86522313844123
568,C121,Cruz-Pedra Mole,,32.654688924564724,-16.835978423647994
138,604,CAM da Terça  D,,32.67347406889602,-16.920910054545704
128,609A,R Portada STO António  S,,32.670691363339266,-16.899596771290568
1071,629,Beco Corgo,,32.67960607538414,-16.9390019941792
1068,63,CAM Amparo  LEV Piornais  S,,32.64339251179884,-16.94425551681849
1265,922C,CAM Barreira  D2A,,32.68088751581809,-16.949454883946004
1267,931,R Caridade Pestana  S3A,,32.656878139742425,-16.874303194661636
257,C55,Antes REST Katespero,,32.69091143143652,-16.839780632030248
255,C56,REST Katespero,,32.691397673228046,-16.839141616216537
254,C57,REST Katespero,,32.69146864029628,-16.839073592313493
541,C58,Águas Mansas-Zona 24,,32.693703685248124,-16.837239560688904
256,C6,Antes da Cornélia,,32.666983097773084,-16.866972801507043
1083,99,CAM Esmeraldo  Dep Moinho,,32.65427683581216,-16.941406871396573
1085,995,Curral Velho  T-90,,32.682193882729614,-16.94201010551517
1084,997,CAM da Igreja  D,,32.66482343240929,-16.93728402655236
1299,982,CAM Bica Pau  Inicio,,32.65429620840974,-16.879117894563315
1803,984,CAM Bica Pau  Curva  D,,32.65353337297128,-16.880466657940435
1802,986,CAM Bica Pau  Fonte  D,,32.65196514495801,-16.881452606972076
1801,988,Cemitério São Gonçalo  D,,32.65048906256887,-16.88218315787859
1817,1337,Caminho dos Tornos  S4A,,32.67645909743314,-16.9131978530685
172,1339,Caminho dos Tornos  S5A,,32.678079319093435,-16.914485701537675
171,1262,Caminho dos Tornos  D1A,,32.6780700683594,-16.9145412445068
173,1264,Caminho dos Tornos  D2A,,32.67656790680699,-16.91330175046022
176,733,Rua Nova Levada Cavalo,,32.651401429778076,-16.925350629731998
783,CF24,CAM Seara Velha  5A,,32.7159729003906,-16.9651508331299
760,CF31,Levada Curral das Freiras,,32.71640040097375,-16.966674762843088
